시도명,시군구명,법정읍면동명,읍면동아이디,SOC유형,SOC유형아이디,구분명,시설명,시설물 아이디,인허가일자,도로명주소,지번주소,공원구분,공원면적,공원보유시설(운동시설),공원보유시설(유희시설),공원보유시설(편익시설),공원보유시설(교양시설),공원보유시설(기타시설),지정고시일,관리기관명,전화번호,데이터갱신일자,업태구분명,위도,경도
경기도,평택시,고덕동,"41220128",생활편의형SOC,CVNTL,도시공원,"38호 어린이공원(서정동)",CVNTL_22_41220_03129,,,경기도 평택시 서정동 678-36,어린이공원,1625,"","","","","",2015-04-03,경기도 평택시청,"031-8024-4247","2022-07-11",,37.0524830000,127.0460200000
경기도,평택시,칠원동,"41220105",생활편의형SOC,CVNTL,도시공원,수촌1 어린이공원(수촌지구),CVNTL_22_41220_03414,,,경기도 평택시 칠원동 350-4,어린이공원,2071,"","","","","",2009-12-16,경기도 평택시청,"031-8024-4247","2022-07-11",,37.0221860000,127.1084750000
경기도,평택시,칠원동,"41220105",생활편의형SOC,CVNTL,도시공원,동부 106호 어린이공원(신촌지구),CVNTL_22_41220_03415,,,경기도 평택시 칠원동 388-4,어린이공원,5143,"","","","","",2009-12-16,경기도 평택시청,"031-8024-4247","2022-07-11",,37.0246620000,127.1095600000
경기도,부천시,여월동,"41190118",생활편의형SOC,CVNTL,도시공원,둥지공원,CVNTL_22_41190_01040,,,경기도 부천시 여월동 314,어린이공원,2644.3,배드민턴장,조합놀이대,화장실,"","",2003-11-28,경기도 부천시청,"032-625-4855","2022-07-11",,37.5103570000,126.8025000000
경기도,성남시 분당구,이매동,"41135106",생활편의형SOC,CVNTL,도시공원,과수원공원,CVNTL_22_41135_01248,,,경기도 성남시 분당구 이매동 103,어린이공원,5180.1,야외운동기구,어린이놀이터,벤치,"","",1990-06-22,분당구녹지공원과,"031-729-8092","2022-07-11",,37.4023900000,127.1259900000
경기도,수원시 권선구,서둔동,"41113131",생활편의형SOC,CVNTL,도시공원,한터공원,CVNTL_22_41113_01492,,,경기도 수원시 권선구 서둔동 372,어린이공원,3218,다목적구장,"","","","",,경기도 수원시 권선구 녹지공원과,"031-228-6195","2022-07-11",,37.2678500000,126.9961240000
경기도,수원시 영통구,원천동,"41117102",생활편의형SOC,CVNTL,도시공원,꿈틀이공원,CVNTL_22_41117_01574,,,경기도 수원시 영통구 원천동 581,어린이공원,2374.2,"",조합놀이대1,"","","",,경기도 수원시 영통구 녹지공원과,"031-228-8331","2022-07-11",,37.2773060000,127.0501560000
경기도,수원시 장안구,천천동,"41111133",생활편의형SOC,CVNTL,도시공원,화산공원,CVNTL_22_41111_01676,,경기 수원시 장안구 화산로 85,경기도 수원시 장안구 천천동 336-1,어린이공원,2000,조합놀이대1+ 음수대1+휴게쉼터,조합놀이대1,"","",음수대1,,경기도 수원시 장안구 녹지공원과,"031-228-5995","2022-07-11",,37.2937706000,126.9794363000
경기도,화성시,우정읍,"41590256",생활편의형SOC,CVNTL,도시공원,쌍봉산 근린공원,CVNTL_22_41590_03542,,경기도 화성시 우정읍 조암로 52-5,경기도 화성시 우정읍 조암리 391-14,근린공원,37235,"","",파고라 등,"","",1988-07-23,경기도 화성시청 공원관리과,"031-5189-6626","2022-07-11",,37.0897815000,126.8176980000
경기도,화성시,우정읍,"41590256",생활편의형SOC,CVNTL,도시공원,조암1호 근린공원,CVNTL_22_41590_03541,,경기도 화성시 우정읍 조암동로 58,경기도 화성시 우정읍 조암리 791-5,근린공원,12427,"","",파고라 등,"","",2005-06-20,경기도 화성시청 공원관리과,"031-5189-6626","2022-07-11",,37.0886471000,126.8255716000
경기도,화성시,우정읍,"41590256",생활편의형SOC,CVNTL,도시공원,조암2호 어린이공원,CVNTL_22_41590_03539,,경기도 화성시 우정읍 조암동로 58,경기도 화성시 우정읍 조암리 790,어린이공원,8401,"","",조합놀이대 등,"","",2005-06-20,경기도 화성시청 공원관리과,"031-5189-6626","2022-07-11",,37.0908880000,126.8243465000
경기도,화성시,우정읍,"41590256",생활편의형SOC,CVNTL,도시공원,조암5호 어린이공원,CVNTL_22_41590_03537,,경기도 화성시 우정읍 조암북로58번길 5,경기도 화성시 우정읍 조암리 808-3,어린이공원,1497,"","",조합놀이대 등,"","",2005-06-20,경기도 화성시청 공원관리과,"031-5189-6626","2022-07-11",,37.0853815000,126.8212219000
경기도,화성시,우정읍,"41590256",생활편의형SOC,CVNTL,도시공원,조암3호 어린이공원,CVNTL_22_41590_03543,,경기도 화성시 우정읍 조암동로 58,경기도 화성시 우정읍 조암리 149-11,어린이공원,3717,"","",조합놀이대 등,"","",2005-06-20,경기도 화성시청 공원관리과,"031-5189-6626","2022-07-11",,37.0891291000,126.8201177000
경기도,이천시,증포동,"41500109",생활편의형SOC,CVNTL,도시공원,증포3지구 어린이공원1,CVNTL_22_41500_02743,,경기도 이천시 이섭대천로 1325,경기도 이천시 증포동 483,어린이공원,352,"",조합놀이대+그네+흔들놀이기구+충격흡수용표면재 고무포설,화장실,"","",2013-05-20,경기도 이천시청,"031-645-3844","2022-07-11",,37.2893959000,127.4493509000
경기도,이천시,증포동,"41500109",생활편의형SOC,CVNTL,도시공원,증포3지구 어린이공원2,CVNTL_22_41500_02744,,경기도 이천시 이섭대천로 1325,경기도 이천시 증포동 493,어린이공원,45,"",흔들놀이기구+충격흡수용표면재 고무포설,"","","",2013-05-20,경기도 이천시청,"031-645-3844","2022-07-11",,37.2905190000,127.4468852000
경기도,부천시,약대동,"41190105",생활편의형SOC,CVNTL,도시공원,약수공원,CVNTL_22_41190_01056,,"",경기도 부천시 약대동 216-2,어린이공원,1500,"",조합놀이대,"","","",2007-04-02,경기도 부천시청,"032-625-4864","2022-07-11",,37.5170600000,126.7663200000
경기도,평택시,장당동,"41220102",생활편의형SOC,CVNTL,도시공원,원장당 어린이공원(장당 1호),CVNTL_22_41220_03135,,"",경기도 평택시 장당동 631-1,어린이공원,2147.6,농구대,그네+모래포장+조합놀이대+흔들놀이,자전거보관대,"",집수정,2002-10-25,경기도 평택시청,"031-8024-4247","2022-07-11",,37.0489460000,127.0577550000
경기도,부천시,상동,"41190109",생활편의형SOC,CVNTL,도시공원,행복한공원,CVNTL_22_41190_01092,,"",경기도 부천시 상동 550-6,어린이공원,2489.7,"",그네 등 6개,"","","",1998-12-17,경기도 부천시청,"032-625-4846","2022-07-11",,37.5012780000,126.7495200000
경기도,안양시 동안구,비산동,"41173101",생활편의형SOC,CVNTL,도시공원,어우리지어린이공원,CVNTL_22_41173_02135,,"",경기도 안양시 동안구 비산동 455-3,어린이공원,1500,"","","","","",1999-01-07,경기도 안양시 공원관리과,"031-8045-5022","2022-07-11",,37.4003800000,126.9373300000
경기도,안성시,공도읍,"41550250",생활편의형SOC,CVNTL,도시공원,진사근린공원2,CVNTL_22_41550_02086,,"",경기도 안성시 공도읍 진사리 5-39,근린공원,16447,"","","","","",2013-01-31,안성시청,"031-678-5392","2022-07-11",,36.9965820000,127.1484200000
경기도,수원시 장안구,천천동,"41111133",생활편의형SOC,CVNTL,도시공원,천천공원,CVNTL_22_41111_01671,,"",경기도 수원시 장안구 천천동 511-2,어린이공원,1839.1,"",조합놀이대1,"","","",,경기도 수원시 장안구 녹지공원과,"031-228-5995","2022-07-11",,37.2991640000,126.9818200000
경기도,김포시,마산동,"41570108",생활편의형SOC,CVNTL,도시공원,한강소공원22,CVNTL_22_41570_00637,,"",경기도 김포시 마산동 674-5,소공원,1482,"","","","","",2010-08-19,경기도 김포시 공원관리과,"031-980-5627","2022-07-11",,37.6422500000,126.6419900000
경기도,군포시,산본동,"41410104",생활편의형SOC,CVNTL,도시공원,태을어린이공원,CVNTL_22_41410_00524,,"",경기도 군포시 산본동 1252,어린이공원,1633.9,"","","","","",2005-10-24,경기도 군포시청,"031-390-0478","2022-07-11",,37.3656850000,126.9340500000
경기도,안양시 만안구,안양동,"41171101",생활편의형SOC,CVNTL,도시공원,병목안시민공원,CVNTL_22_41171_02245,,경기도 안양시 만안구 병목안로 215,경기도 안양시 만안구 안양동 산 82-2,체육공원,91728,"","","","","",2001-12-07,경기도 안양시 공원관리과,"031-8045-5285","2022-07-11",,37.3840560000,126.9092600000
경기도,안성시,중리동,"41550133",생활편의형SOC,CVNTL,도시공원,안성체육공원,CVNTL_22_41550_02097,,경기도 안성시 안성맞춤대로 772,경기도 안성시 중리동 440,체육공원,12202,"","","","","",2007-05-28,안성시청,"031-678-5392","2022-07-11",,36.9825550000,127.2668460000
경기도,화성시,서신면,"41590350",생활편의형SOC,CVNTL,도시공원,전곡공원 5,CVNTL_22_41590_03752,,경기도 화성시 서신면 당성로 232,경기도 화성시 서신면 전곡리 189-2,소공원,517,"","",등의자 등,"","",2009-06-03,경기도 화성시청 공원관리과,"031-5189-6626","2022-07-11",,37.1945080000,126.6940000000
경기도,김포시,풍무동,"41570107",생활편의형SOC,CVNTL,도시공원,풍무제1어린이공원,CVNTL_22_41570_00797,,"",경기도 김포시 풍무동 774,어린이공원,1534,"","","","","",2010-01-29,경기도 김포시 공원관리과,"031-980-5627","2022-07-11",,37.6030350000,126.7264200000
경기도,군포시,당동,"41410101",생활편의형SOC,CVNTL,도시공원,산마을어린이공원,CVNTL_22_41410_00550,,"",경기도 군포시 당동 1025,어린이공원,1597.9,"","","","","",2006-12-07,경기도 군포시청,"031-390-0478","2022-07-11",,37.3419460000,126.9354900000
경기도,남양주시,화도읍,"41360256",생활편의형SOC,CVNTL,도시공원,마석제1호어린이공원,CVNTL_22_41360_00889,,"",경기도 남양주시 화도읍 마석우리 346,어린이공원,1530,"","","","","",,경기도 남양주시청,"031-590-8601","2022-07-11",,37.6594920000,127.3028100000
경기도,오산시,수청동,"41370108",생활편의형SOC,CVNTL,도시공원,무지개어린이공원,CVNTL_22_41370_02455,,"",경기도 오산시 수청동 590,어린이공원,1661,"",조합놀이대 등,"","","",2005-01-03,경기도 오산시환경사업소 공원녹지과,"031-8036-6473","2022-07-11",,37.1693200000,127.0573400000
경기도,하남시,풍산동,"41450110",생활편의형SOC,CVNTL,도시공원,누리봄어린이공원(226),CVNTL_22_41450_03519,,"",경기도 하남시 풍산동 632,어린이공원,1752,"","","","","",2015-11-16,경기도 하남시청,"031-790-6415","2022-07-11",,37.5443420000,127.1942750000
경기도,고양시 일산서구,탄현동,"41287103",생활편의형SOC,CVNTL,도시공원,탄현일단의주택지168(탄현용현)공원,CVNTL_22_41287_00210,,"",경기도 고양시 일산서구 탄현동 1634-1,어린이공원,2303,게이트볼장+체력단련시설,조합놀이대+그네+시소+흔들놀이대,"","","",2006-10-02,경기도 고양시 일산서구청,"031-8075-7266","2022-07-11",,37.7034950000,126.7645500000
경기도,고양시 일산서구,탄현동,"41287103",생활편의형SOC,CVNTL,도시공원,탄현일단의주택지168(탄현호곡)공원,CVNTL_22_41287_00211,,"",경기도 고양시 일산서구 탄현동 1634-2,어린이공원,1657,배드민턴장+체력단련시설,시소+흔들놀이대,"","","",2006-10-02,경기도 고양시 일산서구청,"031-8075-7266","2022-07-11",,37.7021260000,126.7661700000
경기도,고양시 일산서구,탄현동,"41287103",생활편의형SOC,CVNTL,도시공원,탄현근린공원,CVNTL_22_41287_00213,,"",경기도 고양시 일산서구 탄현동 산16,근린공원,90598,족구장+배드민턴장+체력단련시설,"","","","",1974-05-16,경기도 고양시 푸른도시사업소,"031-8075-4343","2022-07-11",,37.6999240000,126.7754300000
경기도,고양시 일산서구,탄현동,"41287103",생활편의형SOC,CVNTL,도시공원,탄현 2(황룡산)공원,CVNTL_22_41287_00214,,"",경기도 고양시 일산서구 탄현동 1554,어린이공원,1811,체력단련시설,조합놀이대+흔들놀이대+암벽오르기,"","","",1990-12-19,경기도 고양시 일산서구청,"031-8075-7266","2022-07-11",,37.6975600000,126.7713900000
경기도,고양시 일산서구,탄현동,"41287103",생활편의형SOC,CVNTL,도시공원,숯고개공원,CVNTL_22_41287_00249,,경기도 고양시 일산서구 산현로 33,경기도 고양시 일산서구 탄현동 1580,근린공원,10027,다목적운동장+체력단련시설,조합놀이대,"","","",1997-01-21,경기도 고양시 푸른도시사업소,"031-8075-4343","2022-07-11",,37.6907230000,126.7649840000
경기도,평택시,평택동,"41220113",생활편의형SOC,CVNTL,도시공원,롯데인벤스 어린이공원,CVNTL_22_41220_03050,,"",경기도 평택시 평택동 312,어린이공원,1547,다리근육풀기+양팔줄당기기+어깨근육풀기+옆파도타기+오금펴기+온몸노젓기+온몸허리돌리기+하늘걷기,고무칩포장+조합놀이대,"","",수목보호대+조형동상+집수정,2005-08-29,경기도 평택시청,"031-8024-4247","2022-07-11",,36.9893460000,127.0879300000
경기도,수원시 권선구,금곡동,"41113134",생활편의형SOC,CVNTL,도시공원,산울림공원,CVNTL_22_41113_01473,,경기도 수원시 권선구 당수로 41-107,경기도 수원시 권선구 금곡동 1059,근린공원,23151.4,농구장1,"","","","",,경기도 수원시 권선구 녹지공원과,"031-228-6195","2022-07-11",,37.2770460000,126.9361100000
경기도,성남시 중원구,하대원동,"41133109",생활편의형SOC,CVNTL,도시공원,둔촌공원,CVNTL_22_41133_01376,,경기도 성남시 중원구 둔촌대로 300,경기도 성남시 중원구 하대원동 249,어린이공원,1937,"",어린이놀이터,벤치+파고라,"","",2003-11-17,중원구환경위생과,"031-729-6455","2022-07-11",,37.4289200000,127.1524000000
경기도,수원시 권선구,오목천동,"41113129",생활편의형SOC,CVNTL,도시공원,"105호근린공원",CVNTL_22_41113_01522,,경기도 수원시 권선구 서수원로 71,경기도 수원시 권선구 오목천동 814-1,근린공원,10191.8,"","","","","",,경기도 수원시 권선구 녹지공원과,"031-228-6195","2022-07-11",,37.2359700000,126.9761900000
경기도,고양시 덕양구,토당동,"41281120",생활편의형SOC,CVNTL,도시공원,토당 6공원,CVNTL_22_41281_00061,,"",경기도 고양시 덕양구 토당동 885-6,어린이공원,1500,"",조합놀이대,"","","",1986-12-31,경기도 고양시 덕양구청,"031-8075-5267","2022-07-11",,37.6185040000,126.8263200000
경기도,고양시 일산동구,백석동,"41285106",생활편의형SOC,CVNTL,도시공원,백석공원,CVNTL_22_41285_00137,,경기도 고양시 일산동구 일산로 136,경기도 고양시 일산동구 백석동 1233,근린공원,144170,"","",주차장+화장실,"","",1990-03-31,경기도 고양시 푸른도시사업소,"031-8075-4337","2022-07-11",,37.6473430000,126.7949000000
경기도,평택시,고덕동,"41220128",생활편의형SOC,CVNTL,도시공원,수변공원 14호(고덕국제화지구  율포리),CVNTL_22_41220_02952,,"",경기도 평택시 고덕동 9-2,수변공원,8285,"","","","","",2013-01-04,경기도 평택시청,"031-8024-4247","2022-07-11",,37.0499040000,127.0433960000
경기도,안양시 동안구,호계동,"41173104",생활편의형SOC,CVNTL,도시공원,흥안어린이공원,CVNTL_22_41173_02147,,"",경기도 안양시 동안구 호계동 1113-1,어린이공원,3223,"","","","","",1989-12-30,경기도 안양시 공원관리과,"031-8045-5022","2022-07-11",,37.3805270000,126.9681240000
경기도,평택시,용이동,"41220124",생활편의형SOC,CVNTL,도시공원,바다 어린이공원(현촌지구),CVNTL_22_41220_03034,,"",경기도 평택시 용이동 588-2,어린이공원,1934.9,마라톤운동기+어깨근육풀기+온몸허리돌리기,고무칩포장+그네+그네보호대+조합놀이대,"","",트랜치,2010-09-24,경기도 평택시청,"031-8024-4247","2022-07-11",,37.0020520000,127.1337600000
경기도,평택시,용이동,"41220124",생활편의형SOC,CVNTL,도시공원,신흥 근린공원(신흥지구),CVNTL_22_41220_03041,,"",경기도 평택시 용이동 744-1,근린공원,17877,농구대+농구장+다목적경기장+등허리지압기+마라톤운동+배드민턴장+온몸노젓기+하늘걷기+허리돌리기,그네+놀이시설 경계+조합놀이대+흔들놀이,음수대+자전거보관대(10대용)+화장실,"",가든테이블세트+수목보호홀덮개+연결관로+우수관로+원형맨홀+집수정+횡단배수로,2010-09-27,경기도 평택시청,"031-8024-4247","2022-07-11",,37.0037770000,127.1488800000
경기도,평택시,용이동,"41220124",생활편의형SOC,CVNTL,도시공원,현촌한마음 문화공원(현촌지구),CVNTL_22_41220_03042,,"",경기도 평택시 용이동 596-7,문화공원,6694.9,마라톤운동기+어깨근육풀기+옆파도타기+온몸허리돌리기+하늘걷기,"",자전거거치대+화장실,"",집수정+트랜치+흉관,2010-09-24,경기도 평택시청,"031-8024-4247","2022-07-11",,36.9989360000,127.1336400000
경기도,평택시,용이동,"41220124",생활편의형SOC,CVNTL,도시공원,용죽 역사공원(용죽지구),CVNTL_22_41220_03043,,"",경기도 평택시 용이동 660,역사공원,36140.4,"",강아지흔들놀이대+고양이흔들놀이대+그네놀이대+놀이시설 경계+양흔들놀이대+조합놀이대2,자전거보관대+화장실,"",U형측구+배수관+오수관(PVC PIPE)+오수맨홀+집수정+판넬식옹벽,2010-11-24,경기도 평택시청,"031-8024-4247","2022-07-11",,36.9975200000,127.1264950000
경기도,동두천시,지행동,"41250102",생활편의형SOC,CVNTL,도시공원,도깨비어린이공원,CVNTL_22_41250_00996,,경기도 동두천시 이담로 17,경기도 동두천시 지행동 717-6,어린이공원,2501,"","","","","",,동두천시청 공원녹지과,"031-860-2416","2022-07-11",,37.8889920000,127.0502300000
경기도,동두천시,지행동,"41250102",생활편의형SOC,CVNTL,도시공원,내행3어린이공원,CVNTL_22_41250_00988,,"",경기도 동두천시 지행동 273-32,어린이공원,3500,"","","","","",,동두천시청 공원녹지과,"031-860-2416","2022-07-11",,37.8961200000,127.0601900000
경기도,동두천시,지행동,"41250102",생활편의형SOC,CVNTL,도시공원,지행2어린이공원,CVNTL_22_41250_00989,,"",경기도 동두천시 지행동 175,어린이공원,2445,"","","","","",,동두천시청 공원녹지과,"031-860-2416","2022-07-11",,37.8886380000,127.0642600000
경기도,동두천시,지행동,"41250102",생활편의형SOC,CVNTL,도시공원,지행3어린이공원,CVNTL_22_41250_00992,,경기도 동두천시 평화로2238번길 22,경기도 동두천시 지행동 406-103,어린이공원,1297,"","","","","",,동두천시청 공원녹지과,"031-860-2416","2022-07-11",,37.8874630000,127.0580100000
경기도,동두천시,지행동,"41250102",생활편의형SOC,CVNTL,도시공원,도깨비어린이공원,CVNTL_22_41250_00991,,경기도 동두천시 이담로 17,경기도 동두천시 지행동 717-6,근린공원,17745,"","","","","",,동두천시청 공원녹지과,"031-860-2412","2022-07-11",,37.8889920000,127.0502300000
경기도,동두천시,지행동,"41250102",생활편의형SOC,CVNTL,도시공원,지행1어린이공원,CVNTL_22_41250_01003,,"",경기도 동두천시 지행동 334-8,어린이공원,1570,"","","","","",,동두천시청 공원녹지과,"031-860-2416","2022-07-11",,37.8915820000,127.0595600000
경기도,동두천시,송내동,"41250101",생활편의형SOC,CVNTL,도시공원,"35호어린이공원",CVNTL_22_41250_01001,,경기도 동두천시 평화로2229번길 36,경기도 동두천시 송내동 699-15,어린이공원,1566,"","","","","",,동두천시청 공원녹지과,"031-860-2416","2022-07-11",,37.8856300000,127.0556700000
경기도,동두천시,상패동,"41250112",생활편의형SOC,CVNTL,도시공원,상패공원,CVNTL_22_41250_00987,,"",경기도 동두천시 상패동 산16,근린공원,73195,"","","","","",,동두천시청 공원녹지과,"031-860-2412","2022-07-11",,37.9080960000,127.0458000000
경기도,안산시 상록구,사동,"41271103",생활편의형SOC,CVNTL,도시공원,호수공원,CVNTL_22_41271_02008,,경기도 안산시 상록구 광덕대로 70,경기도 안산시 상록구 사동 1513,근린공원,647766,"축구장,농구장,배구장,인라인장","놀이터,그네,미끄럼틀","주차장,화장실",야외이벤트장,"",1992-03-11,경기도 안산시청,"031-481-2468","2022-07-11",,37.3002970000,126.8293300000
경기도,고양시 덕양구,동산동,"41281112",생활편의형SOC,CVNTL,도시공원,삼송어린이3(동산)공원,CVNTL_22_41281_00059,,"",경기도 고양시 덕양구 동산동 349,어린이공원,2026,"",조합놀이대,"","","",2006-12-11,경기도 고양시 덕양구청,"031-8075-5267","2022-07-11",,37.6433260000,126.8847100000
경기도,광명시,일직동,"41210106",생활편의형SOC,CVNTL,도시공원,일직수변공원,CVNTL_22_41210_00360,,"",경기도 광명시 일직동 395-4,수변공원,71864,"","",화장실,"","",2007-11-22,경기도 광명시청,"02-2680-6298","2022-07-11",,37.4124450000,126.8839100000
경기도,광명시,일직동,"41210106",생활편의형SOC,CVNTL,도시공원,자경제1공원,CVNTL_22_41210_00366,,"",경기도 광명시 일직동 504-3,어린이공원,1187,"","","","","",2007-11-22,경기도 광명시청,"02-2680-6298","2022-07-11",,37.4211900000,126.8899840000
경기도,평택시,신대동,"41220122",생활편의형SOC,CVNTL,도시공원,원평14통(삽다리) 어린이공원,CVNTL_22_41220_03339,,"",경기도 평택시 신대동 184-9,어린이공원,1500,"","","","","",2016-02-29,경기도 평택시청,"031-8024-4247","2022-07-11",,37.0005380000,127.0580200000
경기도,평택시,포승읍,"41220256",생활편의형SOC,CVNTL,도시공원,원효대사 역사공원,CVNTL_22_41220_03178,,"",경기도 평택시 포승읍 원정리 산109-37,역사공원,7131,"","","","","",2016-02-29,경기도 평택시청,"031-8024-4247","2022-07-11",,37.0046800000,126.8225300000
경기도,성남시 분당구,판교동,"41135108",생활편의형SOC,CVNTL,도시공원,판교제5호(너울)공원,CVNTL_22_41135_01239,,"",경기도 성남시 분당구 판교동 597,어린이공원,1768.9,"",어린이놀이터,벤치,"","",2004-12-30,분당구녹지공원과,"031-729-8092","2022-07-11",,37.3898850000,127.0914700000
경기도,부천시,중동,"41190108",생활편의형SOC,CVNTL,도시공원,넘말공원,CVNTL_22_41190_01114,,"",경기도 부천시 중동 729,어린이공원,3124,"",그네 등 3개,화장실,"","",1980-10-07,경기도 부천시청,"032-625-4864","2022-07-11",,37.4951300000,126.7622000000
경기도,부천시,중동,"41190108",생활편의형SOC,CVNTL,도시공원,도담공원,CVNTL_22_41190_01117,,"",경기도 부천시 중동 1291,어린이공원,1463,"",그네 등 3개,"","","",2004-07-15,경기도 부천시청,"032-625-4864","2022-07-11",,37.4892500000,126.7696900000
경기도,고양시 일산동구,정발산동,"41285103",생활편의형SOC,CVNTL,도시공원,밤가시공원,CVNTL_22_41285_00164,,경기도 고양시 일산동구 일산로380번길 20-2,경기도 고양시 일산동구 정발산동 1299,어린이공원,23274,체력단련시설+운동장(축구골대+농구대),조합놀이대+흔들놀이기구(흔들말+시소)+회전놀이기구+그네,화장실,"","",1990-03-31,경기도 고양시 일산동구청,"031-8075-6263","2022-07-11",,37.6694830000,126.7826200000
경기도,평택시,세교동,"41220120",생활편의형SOC,CVNTL,도시공원,영신 제1호 근린공원(영신지구),CVNTL_22_41220_03432,,경기도 평택시 영신로 108,경기도 평택시 동삭동 589-3,근린공원,13139,"","","","","",2010-01-29,경기도 평택시청,"031-8024-4247","2022-07-11",,37.0183640000,127.0834960000
경기도,평택시,세교동,"41220120",생활편의형SOC,CVNTL,도시공원,꼬불길 어린이공원(지제세교지구),CVNTL_22_41220_03234,,"",경기도 평택시 세교동 408-2,어린이공원,1893,"","","","","",2013-09-03,경기도 평택시청,"031-8024-4247","2022-07-11",,37.0132700000,127.0750960000
경기도,평택시,동삭동,"41220119",생활편의형SOC,CVNTL,도시공원,상서재마당 근린공원(동삭2지구 근린2호),CVNTL_22_41220_03248,,"",경기도 평택시 동삭동 산1,근린공원,12214,"","","","","",2013-05-08,경기도 평택시청,"031-8024-4247","2022-07-11",,37.0138970000,127.1027800000
경기도,평택시,합정동,"41220117",생활편의형SOC,CVNTL,도시공원,조개터 1호 어린이공원,CVNTL_22_41220_03258,,"",경기도 평택시 합정동 921-1,어린이공원,1632.8,등허리지압기+마라톤운동+옆파도타기+온몸근육풀기+온몸허리돌리기,그네(2인용)+그네보호대 +시소(4인용)+조합놀이대+흔들놀이대,"","",집수정,1993-12-03,경기도 평택시청,"031-8024-4247","2022-07-11",,36.9891600000,127.0998500000
경기도,고양시 덕양구,행신동,"41281128",생활편의형SOC,CVNTL,도시공원,밤나무공원,CVNTL_22_41281_00067,,"",경기도 고양시 덕양구 행신동 1068-1,어린이공원,6726,"",조합놀이대,"","","",2003-10-31,경기도 고양시 덕양구청,"031-8075-5267","2022-07-11",,37.6207660000,126.8521400000
경기도,부천시,중동,"41190108",생활편의형SOC,CVNTL,도시공원,중동1-1공원,CVNTL_22_41190_01102,,"",경기도 부천시 중동 778-3,소공원,1787.8,"","","","","",2019-12-02,경기도 부천시청,"032-625-4864","2022-07-11",,37.4912720000,126.7706760000
경기도,고양시 덕양구,행신동,"41281128",생활편의형SOC,CVNTL,도시공원,행신 7(소만)공원,CVNTL_22_41281_00085,,경기도 고양시 덕양구 화신로 42,경기도 고양시 덕양구 행신동 782,어린이공원,1501.3,"",조합놀이대,화장실,"","",1990-12-08,경기도 고양시 덕양구청,"031-8075-5267","2022-07-11",,37.6165240000,126.8404100000
경기도,수원시 장안구,정자동,"41111130",생활편의형SOC,CVNTL,도시공원,정자공원,CVNTL_22_41111_01662,,경기도 수원시 장안구 송정로60번길 10-23,경기도 수원시 장안구 정자동 35-22,어린이공원,3238,다목적구장(농구)1,조합놀이대1,노인정1,"","",,경기도 수원시 장안구 녹지공원과,"031-228-5995","2022-07-11",,37.2955300000,127.0025600000
경기도,안산시 단원구,원곡동,"41273108",생활편의형SOC,CVNTL,도시공원,원곡공원,CVNTL_22_41273_01956,,경기도 안산시 단원구 화랑로 10,경기도 안산시 단원구 원곡동 963-14,어린이공원,1385.9,농구대 2,"조합놀이대, 시소, 그네","","","",1995-01-01,경기도 안산시청,"031-481-6412","2022-07-11",,37.3330700000,126.7955500000
경기도,부천시,중동,"41190108",생활편의형SOC,CVNTL,도시공원,달빛공원,CVNTL_22_41190_01115,,"",경기도 부천시 중동 1115,근린공원,3788.6,"","","","","",2011-11-07,경기도 부천시청,"032-625-4843","2022-07-11",,37.4963400000,126.7792200000
경기도,안산시 상록구,부곡동,"41271107",생활편의형SOC,CVNTL,도시공원,새말공원,CVNTL_22_41271_02028,,"",경기도 안산시 상록구 부곡동 639-7,어린이공원,1563.7,"","조합놀이대,그네","","","",1995-01-01,경기도 안산시청,"031-481-5436","2022-07-11",,37.3337750000,126.8658140000
경기도,안산시 상록구,이동,"41271102",생활편의형SOC,CVNTL,도시공원,소나무공원,CVNTL_22_41271_02038,,"",경기도 안산시 상록구 이동 679,어린이공원,1639.2,"",조합놀이대,"","","",2004-01-01,경기도 안산시청,"031-481-5436","2022-07-11",,37.3084800000,126.8460160000
경기도,안산시 상록구,이동,"41271102",생활편의형SOC,CVNTL,도시공원,매화공원,CVNTL_22_41271_02068,,경기도 안산시 상록구 매화로1길 12-3,경기도 안산시 상록구 이동 582-2,어린이공원,2236,"","조합놀이대,그네,흔들놀이기구","","","",1989-01-01,경기도 안산시청,"031-481-5436","2022-07-11",,37.3058240000,126.8592760000
경기도,구리시,수택동,"41310105",생활편의형SOC,CVNTL,도시공원,왕산내뜰어린이공원,CVNTL_22_41310_00413,,"",경기도 구리시 수택동 889-3,어린이공원,1903,야외헬스기구,조합놀이대,"","","",2007-07-30,경기도 구리시청,"031-550-2418","2022-07-11",,37.6018300000,127.1466450000
경기도,과천시,문원동,"41290102",생활편의형SOC,CVNTL,도시공원,문원어린이공원,CVNTL_22_41290_00276,,"",경기도 과천시 문원동 155-3,어린이공원,1737,체력단련시설,어린이놀이터,"","",조경시설+도로,2001-12-11,경기도 과천시청,"02-3677-2272","2022-07-11",,37.4219740000,127.0087800000
경기도,고양시 일산동구,중산동,"41285102",생활편의형SOC,CVNTL,도시공원,일산3도시개발구역 소공원,CVNTL_22_41285_00174,,"",경기도 고양시 일산동구 중산동 1853,소공원,1007,"","","","","",2015-06-30,경기도 고양시 일산동구청,"031-8075-6262","2022-07-11",,37.6794100000,126.7904100000
경기도,부천시,작동,"41190119",생활편의형SOC,CVNTL,도시공원,성곡공원,CVNTL_22_41190_01168,,"",경기도 부천시 작동 48-3,어린이공원,1650.5,"",그네 등 3개,"","","",1987-08-05,경기도 부천시청,"032-625-4855","2022-07-11",,37.5177040000,126.8162900000
경기도,안산시 단원구,고잔동,"41273101",생활편의형SOC,CVNTL,도시공원,민속공원,CVNTL_22_41273_01917,,경기도 안산시 단원구 한양대학로 142,경기도 안산시 단원구 고잔동 777,근린공원,36464,게이트볼장,그네,"주차장,화장실","","",1985-09-11,경기도 안산시청,"031-481-2468","2022-07-11",,37.3077620000,126.8363340000
경기도,평택시,비전동,"41220118",생활편의형SOC,CVNTL,도시공원,우주별 어린이공원(소사벌택지 8호),CVNTL_22_41220_03313,,"",경기도 평택시 비전동 1047,어린이공원,1688,옆파도타기+온몸허리돌리기+하늘걷기,고무칩포장+엑스시소+조합놀이대+흔들놀이,"","",우수관로+집수정,2007-11-07,경기도 평택시청,"031-8024-4247","2022-07-11",,37.0025060000,127.1110200000
경기도,평택시,비전동,"41220118",생활편의형SOC,CVNTL,도시공원,무지개 어린이공원,CVNTL_22_41220_03314,,"",경기도 평택시 비전동 852,어린이공원,1696,"",고무칩포장+조합놀이대+흔들놀이,화장실,"",맹암거+무지개조형물동산+배수관+자연석쌓기+집수정뚜껑+트랜치,1990-06-15,경기도 평택시청,"031-8024-4247","2022-07-11",,36.9922070000,127.1111300000
경기도,성남시 분당구,삼평동,"41135109",생활편의형SOC,CVNTL,도시공원,판교제6호(붓들)공원,CVNTL_22_41135_01256,,"",경기도 성남시 분당구 삼평동 697,근린공원,154424,체력단련장,"",안내판,전망스탠드,"",2004-12-30,성남시 공원과,"031-729-4382","2022-07-11",,37.4060700000,127.1072800000
경기도,성남시 중원구,중앙동,"41133132",생활편의형SOC,CVNTL,도시공원,삼창아파트공원,CVNTL_22_41133_01375,,"",경기도 성남시 중원구 중앙동 548,어린이공원,1525,"",어린이놀이터,벤치+파고라,"","",2006-01-16,중원구환경위생과,"031-729-6455","2022-07-11",,37.4371570000,127.1485440000
경기도,수원시 권선구,탑동,"41113133",생활편의형SOC,CVNTL,도시공원,서낭재공원,CVNTL_22_41113_01433,,"",경기도 수원시 권선구 탑동 23-39,어린이공원,1867,"","","","","",,경기도 수원시 권선구 녹지공원과,"031-228-6195","2022-07-11",,37.2731550000,126.9783400000
경기도,수원시 권선구,권선동,"41113137",생활편의형SOC,CVNTL,도시공원,효정공원,CVNTL_22_41113_01450,,경기도 수원시 권선구 권중로25번길 29-9,경기도 수원시 권선구 권선동 1232,어린이공원,2529.8,"",조합놀이대1,화장실1,"","",,경기도 수원시 권선구 녹지공원과,"031-228-6195","2022-07-11",,37.2549480000,127.0333560000
경기도,수원시 권선구,서둔동,"41113131",생활편의형SOC,CVNTL,도시공원,"80호소공원",CVNTL_22_41113_01485,,,경기도 수원시 권선구 서둔동 9-31,소공원,2573,"",휴게쉼터,"","","",,경기도 수원시 권선구 녹지공원과,"031-228-6195","2022-07-11",,37.2700900000,126.9935900000
경기도,수원시 권선구,서둔동,"41113131",생활편의형SOC,CVNTL,도시공원,"51호소공원",CVNTL_22_41113_01484,,"",경기도 수원시 권선구 서둔동 382,소공원,1479.3,"",휴게쉼터,"","","",,경기도 수원시 권선구 녹지공원과,"031-228-6195","2022-07-11",,37.2639400000,126.9953100000
경기도,성남시 분당구,야탑동,"41135107",생활편의형SOC,CVNTL,도시공원,탑골공원,CVNTL_22_41135_01276,,경기도 성남시 분당구 야탑로 303,경기도 성남시 분당구 야탑동 195,근린공원,358629.6,다목적운동장+배구장,"",화장실,어린이집,"",1990-06-22,성남시 공원과,"031-729-4382","2022-07-11",,37.4065300000,127.1519600000
경기도,수원시 영통구,망포동,"41117107",생활편의형SOC,CVNTL,도시공원,"19호소공원",CVNTL_22_41117_01580,,"",경기도 수원시 영통구 망포동 434,소공원,512.7,"",휴게쉼터,"","","",,경기도 수원시 영통구 녹지공원과,"031-228-8331","2022-07-11",,37.2437250000,127.0630400000
경기도,성남시 중원구,도촌동,"41133107",생활편의형SOC,CVNTL,도시공원,도촌 제1호(섬말)공원,CVNTL_22_41133_01402,,"",경기도 성남시 중원구 도촌동 654,근린공원,62458.1,족구장+배드민턴장+게이트볼장,"",전망데크+휴게쉼터+주차장,야외무대,"",2003-06-20,성남시 공원과,"031-729-4272","2022-07-11",,37.4190600000,127.1554640000
경기도,성남시 중원구,도촌동,"41133107",생활편의형SOC,CVNTL,도시공원,도촌 제2호(독고개)공원,CVNTL_22_41133_01403,,"",경기도 성남시 중원구 도촌동 659,근린공원,24806.9,체력단련장,"",벤치,"","",2009-06-30,성남시 공원과,"031-729-4272","2022-07-11",,37.4178400000,127.1562960000
경기도,수원시 장안구,천천동,"41111133",생활편의형SOC,CVNTL,도시공원,천천1공원,CVNTL_22_41111_01675,,경기도 수원시 장안구 하률로30번길 50,경기도 수원시 장안구 천천동 575,근린공원,10465.7,배드민턴장1,"",화장실1,"","",,경기도 수원시 장안구 녹지공원과,"031-228-5995","2022-07-11",,37.3005900000,126.9758000000
경기도,성남시 분당구,구미동,"41135114",생활편의형SOC,CVNTL,도시공원,석촌공원,CVNTL_22_41135_01297,,"",경기도 성남시 분당구 구미동 217,근린공원,18863.7,"","","","","",1990-06-22,성남시 공원과,"031-729-4382","2022-07-11",,37.3367000000,127.1197360000
경기도,김포시,대곶면,"41570340",생활편의형SOC,CVNTL,도시공원,항공근린공원1호,CVNTL_22_41570_00654,,"",경기도 김포시 대곶면 대벽리 1062,근린공원,11096,"","","","","",2005-11-17,경기도 김포시 공원녹지과,"031-980-2344","2022-07-11",,37.6185720000,126.5718700000
경기도,김포시,운양동,"41570103",생활편의형SOC,CVNTL,도시공원,나래울공원,CVNTL_22_41570_00683,,경기도 김포시 김포한강11로438번길 8-52,경기도 김포시 운양동 1287-1,근린공원,31172,"","조합놀이대, 흔들놀이대",화장실,"","",2007-10-29,경기도 김포시 공원관리과,"031-980-5627","2022-07-11",,37.6518670000,126.6964950000
경기도,김포시,양촌읍,"41570256",생활편의형SOC,CVNTL,도시공원,양산근린3공원,CVNTL_22_41570_00751,,"",경기도 김포시 양촌읍 학운리 3021,근린공원,10053,"체력단련시설, 배드민턴장",조합놀이대,"","","",2006-07-03,경기도 김포시 공원관리과,"031-980-5627","2022-07-11",,37.6165730000,126.6258100000
경기도,성남시 수정구,복정동,"41131107",생활편의형SOC,CVNTL,도시공원,복정공원,CVNTL_22_41131_01367,,"",경기도 성남시 수정구 복정동 635,어린이공원,1726.2,"",어린이놀이터,벤치,"","",1998-12-07,수정구환경위생과,"031-729-5452","2022-07-11",,37.4677120000,127.1278500000
경기도,수원시 권선구,오목천동,"41113129",생활편의형SOC,CVNTL,도시공원,고금공원,CVNTL_22_41113_01524,,경기도 수원시 권선구 서수원로63번길 70,경기도 수원시 권선구 오목천동 851-3,어린이공원,1760.9,"",조합놀이대1,"","","",,경기도 수원시 권선구 녹지공원과,"031-228-6195","2022-07-11",,37.2339320000,126.9742800000
경기도,포천시,선단동,"41650104",생활편의형SOC,CVNTL,도시공원,선단제4공원,CVNTL_22_41650_03450,,"",경기도 포천시 선단동 433-3,어린이공원,1693,생활체육시설(3종),놀이공간,"","","",2010-03-19,경기도 포천시청 생태공원과,"031-538-2358","2022-07-11",,37.8546520000,127.1637900000
경기도,화성시,반월동,"41590120",생활편의형SOC,CVNTL,도시공원,틀뫼3호공원,CVNTL_22_41590_03633,,경기도 화성시 동탄지성로 394,경기도 화성시 반월동 252,소공원,2473,"","",등의자 등,"","",2010-12-10,경기도 화성시청 공원관리과,"031-5189-6626","2022-07-11",,37.2281380000,127.0477500000
경기도,시흥시,하상동,"41390120",생활편의형SOC,CVNTL,도시공원,연성1지구 소공원,CVNTL_22_41390_01799,,"",경기도 시흥시 하상동 산11-3,소공원,5310,배드민턴장/ 체육시설,"","","","",2010-06-17,경기도 시흥시청,"031-310-3871","2022-07-11",,37.3905830000,126.8105850000
경기도,파주시,탄현면,"41480320",생활편의형SOC,CVNTL,도시공원,풍뎅이공원-1,CVNTL_22_41480_02786,,경기도 파주시 탄현면 풍뎅이길 65,경기도 파주시 탄현면 법흥리 1734,어린이공원,793,"",조합놀이대,"","","",2000-08-23,경기도 파주시 공원관리과,"031-940-5381","2022-07-11",,37.7732000000,126.7012400000
경기도,김포시,고촌읍,"41570253",생활편의형SOC,CVNTL,도시공원,향산지구 제1어린이공원,CVNTL_22_41570_00773,,"",경기도 김포시 고촌읍 향산리 51-11,어린이공원,1872,"","","","","",2015-09-25,경기도 김포시 공원녹지과,"031-980-2344","2022-07-11",,37.6182820000,126.7487640000
경기도,여주시,상동,"41670101",생활편의형SOC,CVNTL,도시공원,상리5호어린이공원,CVNTL_22_41670_02406,,경기도 여주시 여흥로160번길 49-7,경기도 여주시 상동 373-8,어린이공원,2170,"",아이누리놀이터,파고라,"","",,경기도 여주시청 산림공원과,"031-887-2605","2022-07-11",,37.2922400000,127.6411200000
경기도,화성시,석우동,"41590128",생활편의형SOC,CVNTL,도시공원,하늘빛공원(3호),CVNTL_22_41590_03673,,경기도 화성시 동탄반석로 232,경기도 화성시 석우동 56,근린공원,10726,"","",파고라 등,"","",2002-12-26,경기도 화성시청 공원관리과,"031-5189-6626","2022-07-11",,37.2083000000,127.0755600000
경기도,남양주시,화도읍,"41360256",생활편의형SOC,CVNTL,도시공원,경성큰마을소공원,CVNTL_22_41360_00895,,"",경기도 남양주시 화도읍 묵현리 604-14,소공원,4004,"","","","","",,경기도 남양주시청,"031-590-8601","2022-07-11",,37.6534540000,127.2679750000
경기도,군포시,금정동,"41410105",생활편의형SOC,CVNTL,도시공원,무궁화어린이공원,CVNTL_22_41410_00576,,"",경기도 군포시 금정동 849-3,어린이공원,1500,"","","","","",1991-11-07,경기도 군포시청,"031-390-0478","2022-07-11",,37.3581240000,126.9371600000
경기도,오산시,수청동,"41370108",생활편의형SOC,CVNTL,도시공원,수청근린공원,CVNTL_22_41370_02456,,"",경기도 오산시 수청동 산32-1,근린공원,179029,"","",화장실,"",폭포,1976-12-07,경기도 오산시환경사업소 공원녹지과,"031-8036-6473","2022-07-11",,37.1628380000,127.0684100000
경기도,파주시,목동동,"41480117",생활편의형SOC,CVNTL,도시공원,소공원 18호,CVNTL_22_41480_02846,,"",경기도 파주시 목동동 1102,소공원,361,"","","","","",2014-12-29,경기도 파주시 공원관리과,"031-940-8691","2022-07-11",,37.7200130000,126.7384000000
경기도,남양주시,진접읍,"41360253",생활편의형SOC,CVNTL,도시공원,장현3어린이공원,CVNTL_22_41360_00930,,"",경기도 남양주시 진접읍 장현리 710-2,어린이공원,1900,"","","","","",,경기도 남양주시청,"031-590-8601","2022-07-11",,37.7261160000,127.1937600000
경기도,오산시,오산동,"41370101",생활편의형SOC,CVNTL,도시공원,운암제5어린이공원,CVNTL_22_41370_02484,,"",경기도 오산시 오산동 923-3,어린이공원,2170,"","","","","",1995-11-09,경기도 오산시환경사업소 공원녹지과,"031-8036-6473","2022-07-11",,37.1509550000,127.0768700000
경기도,오산시,원동,"41370103",생활편의형SOC,CVNTL,도시공원,원동제3어린이공원,CVNTL_22_41370_02496,,"",경기도 오산시 원동 641-5,어린이공원,1504,농구장,조합놀이대 등,"","","",2005-05-30,경기도 오산시환경사업소 공원녹지과,"031-8036-6473","2022-07-11",,37.1373520000,127.0838850000
경기도,구리시,교문동,"41310104",생활편의형SOC,CVNTL,도시공원,공원(교문3),CVNTL_22_41310_00439,,"",경기도 구리시 교문동 358-9,소공원,1335,"","","","","",2008-04-14,경기도 구리시청,"","2022-07-11",,37.5971680000,127.1304240000
경기도,시흥시,장곡동,"41390130",생활편의형SOC,CVNTL,도시공원,새싹공원,CVNTL_22_41390_01866,,"",경기도 시흥시 장곡동 796,어린이공원,3240,체육시설/ 농구장,"","","","",1996-07-08,경기도 시흥시청,"031-310-3871","2022-07-11",,37.3811260000,126.7825400000
경기도,오산시,금암동,"41370107",생활편의형SOC,CVNTL,도시공원,세교2 제5호 수변공원,CVNTL_22_41370_02514,,"",경기도 오산시 금암동 198,수변공원,1258,"","","","","",2016-03-31,경기도 오산시환경사업소 공원녹지과,"031-8036-6473","2022-07-11",,37.1695700000,127.0493300000
경기도,평택시,가재동,"41220107",생활편의형SOC,CVNTL,도시공원,제1호 어린이공원 제130호(가재지구),CVNTL_22_41220_03400,,"",경기도 평택시 가재동 442,어린이공원,1730,"","","","","",2011-11-25,경기도 평택시청,"031-8024-4247","2022-07-11",,37.0437660000,127.0764700000
경기도,평택시,동삭동,"41220119",생활편의형SOC,CVNTL,도시공원,상서재 1호 수변공원(동삭2지구),CVNTL_22_41220_03251,,"",경기도 평택시 동삭동 12-1,수변공원,12194,"","","","","",2014-03-17,경기도 평택시청,"031-8024-4247","2022-07-11",,37.0154080000,127.1047000000
경기도,고양시 덕양구,주교동,"41281101",생활편의형SOC,CVNTL,도시공원,주교 1공원,CVNTL_22_41281_00016,,경기도 고양시 덕양구 호국로779번길 15,경기도 고양시 덕양구 주교동 610,어린이공원,1499,"","","","","",1981-05-13,경기도 고양시 덕양구청,"031-8075-5267","2022-07-11",,37.6564250000,126.8343800000
경기도,군포시,금정동,"41410105",생활편의형SOC,CVNTL,도시공원,느티울공원,CVNTL_22_41410_00582,,"",경기도 군포시 금정동 875-10,근린공원,13263,"","","","","",1994-09-15,경기도 군포시청,"031-390-0474","2022-07-11",,37.3542400000,126.9282400000
경기도,안양시 동안구,호계동,"41173104",생활편의형SOC,CVNTL,도시공원,제25호소공원,CVNTL_22_41173_02152,,"",경기도 안양시 동안구 호계동 1304,소공원,642,"","","","","",2010-09-01,경기도 안양시 공원관리과,"031-8045-5022","2022-07-11",,37.3776360000,126.9545700000
경기도,파주시,와동동,"41480122",생활편의형SOC,CVNTL,도시공원,도래공원,CVNTL_22_41480_02817,,경기도 파주시 가람로116번길 170,경기도 파주시 와동동 1339,역사공원,61221,"","","","","",2014-12-29,경기도 파주시 공원관리과,"031-940-8691","2022-07-11",,37.7305150000,126.7634000000
경기도,안양시 동안구,비산동,"41173101",생활편의형SOC,CVNTL,도시공원,꽃동산어린이공원,CVNTL_22_41173_02196,,"",경기도 안양시 동안구 비산동 1041-2,어린이공원,1687,"","","","","",1979-11-29,경기도 안양시 공원관리과,"031-8045-5022","2022-07-11",,37.4052540000,126.9507500000
경기도,파주시,금릉동,"41480123",생활편의형SOC,CVNTL,도시공원,금능어린이공원,CVNTL_22_41480_02821,,경기도 파주시 쇠재안길 13,경기도 파주시 금릉동 442-2,어린이공원,1500,"",조합놀이대,"","","",2004-11-01,경기도 파주시 공원관리과,"031-940-5381","2022-07-11",,37.7518500000,126.7797900000
경기도,성남시 분당구,서현동,"41135105",생활편의형SOC,CVNTL,도시공원,서현공원,CVNTL_22_41135_01221,,"",경기도 성남시 분당구 서현동 89-6,어린이공원,11273.5,야외운동기구,어린이놀이터,벤치+파고라,"",수경시설,1990-06-22,분당구녹지공원과,"031-729-7463","2022-07-11",,37.3820530000,127.1270750000
경기도,군포시,대야미동,"41410108",생활편의형SOC,CVNTL,도시공원,웃말어린이공원,CVNTL_22_41410_00609,,"",경기도 군포시 대야미동 661-1,어린이공원,2003.8,"","","","","",1996-08-14,경기도 군포시청,"031-390-0478","2022-07-11",,37.3263000000,126.9174650000
경기도,동두천시,송내동,"41250101",생활편의형SOC,CVNTL,도시공원,햇님어린이공원,CVNTL_22_41250_01004,,"",경기도 동두천시 송내동 665-2,어린이공원,2000,"","","","","",,동두천시청 공원녹지과,"031-860-2416","2022-07-11",,37.8874130000,127.0529900000
경기도,오산시,원동,"41370103",생활편의형SOC,CVNTL,도시공원,원동공원,CVNTL_22_41370_02495,,"",경기도 오산시 원동 555-2,근린공원,16390,"","","","","",1976-12-07,경기도 오산시환경사업소 공원녹지과,"031-8036-6473","2022-07-11",,37.1399840000,127.0758360000
경기도,시흥시,조남동,"41390124",생활편의형SOC,CVNTL,도시공원,수풀안공원,CVNTL_22_41390_01868,,"",경기도 시흥시 조남동 722,어린이공원,1697,"","","","","",2011-12-21,경기도 시흥시청,"031-310-3871","2022-07-11",,37.3781050000,126.8637540000
경기도,오산시,원동,"41370103",생활편의형SOC,CVNTL,도시공원,원동제1어린이공원,CVNTL_22_41370_02491,,"",경기도 오산시 원동 806-1,어린이공원,1500,"",조합놀이대 등,"","","",1993-07-13,경기도 오산시환경사업소 공원녹지과,"031-8036-6473","2022-07-11",,37.1348840000,127.0724260000
경기도,수원시 팔달구,화서동,"41115138",생활편의형SOC,CVNTL,도시공원,쪽빛공원,CVNTL_22_41115_01728,,경기도 수원시 팔달구 팔달로120번길 25,경기도 수원시 팔달구 화서동 645,어린이공원,1641.3,농구장,조합놀이대1,"","","",,경기도 수원시 팔달구 녹지공원과,"031-228-7043","2022-07-11",,37.2859230000,126.9910000000
경기도,수원시 팔달구,화서동,"41115138",생활편의형SOC,CVNTL,도시공원,개구쟁이공원,CVNTL_22_41115_01729,,"",경기도 수원시 팔달구 화서동 649-1,어린이공원,1500,다목적구장,조합놀이대1,"","","",,경기도 수원시 팔달구 녹지공원과,"031-228-7043","2022-07-11",,37.2847400000,126.9915700000
경기도,수원시 팔달구,화서동,"41115138",생활편의형SOC,CVNTL,도시공원,숙지공원,CVNTL_22_41115_01730,,"",경기도 수원시 팔달구 화서동 654,어린이공원,2017.2,"",조합놀이대1,"","","",,경기도 수원시 팔달구 녹지공원과,"031-228-7043","2022-07-11",,37.2833800000,126.9925300000
경기도,안양시 만안구,안양동,"41171101",생활편의형SOC,CVNTL,도시공원,밤동산어린이공원,CVNTL_22_41171_02214,,경기도 안양시 만안구 냉천로193번길 36,경기도 안양시 만안구 안양동 711-94,어린이공원,1698,"","","","","",1954-08-21,경기도 안양시 공원관리과,"031-8045-5288","2022-07-11",,37.3964420000,126.9176940000
경기도,오산시,가장동,"41370106",생활편의형SOC,CVNTL,도시공원,가장동 수변공원,CVNTL_22_41370_02532,,"",경기도 오산시 가장동 395-5,수변공원,7153,"","","","","",2009-07-06,경기도 오산시환경사업소 공원녹지과,"031-8036-6473","2022-07-11",,37.1633720000,127.0348700000
경기도,광명시,하안동,"41210103",생활편의형SOC,CVNTL,도시공원,개나리공원,CVNTL_22_41210_00312,,"",경기도 광명시 하안동 110-4,어린이공원,1500,"","","","","",1987-12-24,경기도 광명시청,"02-2680-6298","2022-07-11",,37.4617100000,126.8824800000
경기도,수원시 팔달구,화서동,"41115138",생활편의형SOC,CVNTL,도시공원,네버랜드공원,CVNTL_22_41115_01739,,경기도 수원시 팔달구 덕영대로735번길 18,경기도 수원시 팔달구 화서동 656,어린이공원,1500,농구장,조합놀이대1,"","","",,경기도 수원시 팔달구 녹지공원과,"031-228-7043","2022-07-11",,37.2811970000,126.9934100000
경기도,수원시 팔달구,화서동,"41115138",생활편의형SOC,CVNTL,도시공원,약수터공원,CVNTL_22_41115_01731,,"",경기도 수원시 팔달구 화서동 79-9,어린이공원,2135,체력단련시설,"",파고자,"","",,경기도 수원시 팔달구 녹지공원과,"031-228-7043","2022-07-11",,37.2828800000,127.0038760000
경기도,수원시 팔달구,화서동,"41115138",생활편의형SOC,CVNTL,도시공원,제167호공원,CVNTL_22_41115_01733,,"",경기도 수원시 팔달구 화서동 744,어린이공원,1670.7,"",조합놀이대1,"","","",,경기도 수원시 팔달구 녹지공원과,"031-228-7043","2022-07-11",,37.2888680000,126.9990700000
경기도,수원시 팔달구,화서동,"41115138",생활편의형SOC,CVNTL,도시공원,제76호공원,CVNTL_22_41115_01734,,경기도 수원시 팔달구 팔달로 141,경기도 수원시 팔달구 화서동 707,어린이공원,4442.7,농구장,조합놀이대1,"","","",,경기도 수원시 팔달구 녹지공원과,"031-228-7043","2022-07-11",,37.2895240000,126.9829560000
경기도,수원시 팔달구,화서동,"41115138",생활편의형SOC,CVNTL,도시공원,푸른숲공원,CVNTL_22_41115_01732,,"",경기도 수원시 팔달구 화서동 755,어린이공원,1500.2,"",조합놀이대1,정자,"","",,경기도 수원시 팔달구 녹지공원과,"031-228-7043","2022-07-11",,37.2817600000,127.0006400000
경기도,부천시,원미동,"41190101",생활편의형SOC,CVNTL,도시공원,"267호공원",CVNTL_22_41190_01063,,"",경기도 부천시 원미동 39-5,소공원,1798.4,"","","","","",2015-05-11,경기도 부천시청,"032-625-4856","2022-07-11",,37.5004160000,126.7905000000
경기도,평택시,고덕동,"41220128",생활편의형SOC,CVNTL,도시공원,역사공원 1호(고덕국제화지구  두릉리),CVNTL_22_41220_02971,,경기도 평택시 고덕면 계루지1길 7,경기도 평택시 고덕면 두릉리 646,역사공원,88595,"","","","","",2013-01-04,경기도 평택시청,"031-8024-4247","2022-07-11",,37.0571170000,127.0189500000
경기도,평택시,고덕동,"41220128",생활편의형SOC,CVNTL,도시공원,고덕 1호 문화공원 (고덕국제화지구),CVNTL_22_41220_02972,,"",경기도 평택시 고덕동 356-9,문화공원,148156,"","","","","",2013-01-04,경기도 평택시청,"031-8024-4247","2022-07-11",,37.0548970000,127.0346700000
경기도,광명시,광명동,"41210101",생활편의형SOC,CVNTL,도시공원,둥지공원,CVNTL_22_41210_00343,,"",경기도 광명시 광명동 382-8,어린이공원,1502,"","","","","",1986-11-06,경기도 광명시청,"02-2680-6298","2022-07-11",,37.4713130000,126.8486000000
경기도,부천시,도당동,"41190104",생활편의형SOC,CVNTL,도시공원,도당공원,CVNTL_22_41190_01033,,경기도 부천시 부천로264번길 117,경기도 부천시 도당동 산25-5,근린공원,344614.9,족구장+배드민턴장+게이트볼장,조합놀이대 등 12개,화장실,야외공연장,"",1968-01-29,경기도 부천시청,"032-625-4852","2022-07-11",,37.5153850000,126.7910200000
경기도,안양시 동안구,비산동,"41173101",생활편의형SOC,CVNTL,도시공원,부흥어린이공원,CVNTL_22_41173_02139,,,경기도 안양시 동안구 비산동 1103-3,어린이공원,3228,"","","","","",1989-12-30,경기도 안양시 공원관리과,"031-8045-5022","2022-07-11",,37.3934060000,126.9476240000
경기도,평택시,팽성읍,"41220250",생활편의형SOC,CVNTL,도시공원,두정1리 소공원,CVNTL_22_41220_03094,,"",경기도 평택시 팽성읍 두정리 45-1,소공원,1203,농구대+배구네트대+어깨근육풀기+옆파도타기+온몸역기내리기+온몸허리돌리기+하늘걷기,고무칩포장+그네+그네보호대+조합놀이대,음수전,"",수목보호판+집수정+플륨관,2012-06-14,경기도 평택시청,"031-8024-4247","2022-07-11",,36.9400800000,127.0383500000
경기도,평택시,팽성읍,"41220250",생활편의형SOC,CVNTL,도시공원,소공원3호(두정지구),CVNTL_22_41220_03355,,"",경기도 평택시 팽성읍 본정리 31-3,소공원,839,"","","","","",2013-11-29,경기도 평택시청,"031-8024-4247","2022-07-11",,36.9466740000,127.0231100000
경기도,평택시,고덕동,"41220128",생활편의형SOC,CVNTL,도시공원,"34호 어린이공원(고덕국제화지구  여염리)",CVNTL_22_41220_02995,,"",경기도 평택시 고덕면 여염리 373-2,어린이공원,1585,"","","","","",2015-04-03,경기도 평택시청,"031-8024-4247","2022-07-11",,37.0331730000,127.0393900000
경기도,평택시,고덕동,"41220128",생활편의형SOC,CVNTL,도시공원,"36호 어린이공원(여염리)",CVNTL_22_41220_02997,,"",경기도 평택시 고덕면 여염리 296-2,어린이공원,1864,"","","","","",2015-04-03,경기도 평택시청,"031-8024-4247","2022-07-11",,37.0419540000,127.0488600000
경기도,평택시,고덕동,"41220128",생활편의형SOC,CVNTL,도시공원,"19호 어린이공원(고덕국제화지구)",CVNTL_22_41220_02998,,"",경기도 평택시 고덕면 해창리 456-3,어린이공원,0,"","","","","",2010-01-29,경기도 평택시청,"031-8024-4247","2022-07-11",,37.0385740000,127.0187800000
경기도,평택시,고덕동,"41220128",생활편의형SOC,CVNTL,도시공원,수변공원 15호(고덕국제화지구  장당동),CVNTL_22_41220_03139,,"",경기도 평택시 장당동 524-58,수변공원,30638,"","","","","",2013-01-04,경기도 평택시청,"031-8024-4247","2022-07-11",,37.0504380000,127.0515500000
경기도,평택시,장당동,"41220102",생활편의형SOC,CVNTL,도시공원,장당 택지지구 어린이공원,CVNTL_22_41220_03133,,"",경기도 평택시 장당동 469-2,어린이공원,2395,"","","","","",2009-09-25,경기도 평택시청,"031-8024-4247","2022-07-11",,37.0477400000,127.0569460000
경기도,평택시,포승읍,"41220256",생활편의형SOC,CVNTL,도시공원,"1호 수변공원(포승지구 BIX)",CVNTL_22_41220_03182,,"",경기도 평택시 포승읍 희곡리 501,수변공원,0,"","","","","",2013-09-03,경기도 평택시청,"031-8024-4247","2022-07-11",,36.9501270000,126.8705500000
경기도,안양시 만안구,안양동,"41171101",생활편의형SOC,CVNTL,도시공원,덕천2어린이공원,CVNTL_22_41171_02238,,경기도 안양시 만안구 관악대로 50,경기도 안양시 만안구 안양동 1388,어린이공원,1737,"","","","","",2008-12-30,경기도 안양시 공원관리과,"031-8045-5288","2022-07-11",,37.3962550000,126.9298550000
경기도,부천시,괴안동,"41190113",생활편의형SOC,CVNTL,도시공원,"168호공원",CVNTL_22_41190_01084,,"",경기도 부천시 괴안동 203-2,어린이공원,2892.5,"",조합놀이대 등 9종,"","","",2020-03-30,경기도 부천시청,"032-625-4853","2022-07-11",,37.4893570000,126.8217300000
경기도,고양시 덕양구,화정동,"41281123",생활편의형SOC,CVNTL,도시공원,화정 15(민들레)공원,CVNTL_22_41281_00041,,"",경기도 고양시 덕양구 화정동 937,어린이공원,5991.5,"",조합놀이대,"","","",1990-11-04,경기도 고양시 덕양구청,"031-8075-5267","2022-07-11",,37.6366160000,126.8275400000
경기도,수원시 권선구,구운동,"41113132",생활편의형SOC,CVNTL,도시공원,구운공원,CVNTL_22_41113_01541,,경기도 수원시 권선구 구운로4번길 34,경기도 수원시 권선구 구운동 501,근린공원,52586,게이트볼장1+배드민턴장2+인라인스케이트장1,"",화장실2,"",약수터2,,경기도 수원시 권선구 녹지공원과,"031-228-6195","2022-07-11",,37.2785870000,126.9758100000
경기도,부천시,상동,"41190109",생활편의형SOC,CVNTL,도시공원,원천공원,CVNTL_22_41190_01094,,"",경기도 부천시 상동 620-3,근린공원,13099.8,"","",화장실,"","",1998-12-17,경기도 부천시청,"032-625-4846","2022-07-11",,37.4898600000,126.7453460000
경기도,평택시,고덕동,"41220128",생활편의형SOC,CVNTL,도시공원,"13호 근린공원(고덕국제화지구 좌교리)",CVNTL_22_41220_02985,,"",경기도 평택시 고덕면 좌교리 산35-4,근린공원,673747,"","","","","",2013-01-04,경기도 평택시청,"031-8024-4247","2022-07-11",,37.0441250000,127.0323200000
경기도,평택시,고덕동,"41220128",생활편의형SOC,CVNTL,도시공원,"20호 어린이공원(고덕국제화지구  해창리)",CVNTL_22_41220_03005,,"",경기도 평택시 고덕면 해창리 437-1,어린이공원,1520,"","","","","",2013-01-04,경기도 평택시청,"031-8024-4247","2022-07-11",,37.0369150000,127.0179500000
경기도,고양시 덕양구,행신동,"41281128",생활편의형SOC,CVNTL,도시공원,행신 6(용현)공원,CVNTL_22_41281_00083,,경기도 고양시 덕양구 용현로 16,경기도 고양시 덕양구 행신동 768,어린이공원,1501.7,"",조합놀이대,화장실,"","",1990-12-08,경기도 고양시 덕양구청,"031-8075-5267","2022-07-11",,37.6142350000,126.8375400000
경기도,고양시 덕양구,신원동,"41281103",생활편의형SOC,CVNTL,도시공원,삼송근린8(한우물숲길)공원,CVNTL_22_41281_00092,,"",경기도 고양시 덕양구 신원동 665,근린공원,151319,"","","","","",2006-12-11,경기도 고양시 푸른도시사업소,"031-8075-4327","2022-07-11",,37.6594050000,126.8881600000
경기도,평택시,고덕면,"41220330",생활편의형SOC,CVNTL,도시공원,"14호 근린공원(고덕국제화지구  해창리)",CVNTL_22_41220_03403,,"",경기도 평택시 고덕면 해창리 361-1,근린공원,19999,"","","","","",2013-01-04,경기도 평택시청,"031-8024-4247","2022-07-11",,37.0329360000,127.0191650000
경기도,평택시,고덕면,"41220330",생활편의형SOC,CVNTL,도시공원,고덕당현1리 마을쉼터공원,CVNTL_22_41220_03012,,"",경기도 평택시 고덕면 당현리 341-1,기타,1033,등허리지압기+마라톤운동기+온몸근육풀기+온몸노젓기+온몸역기올리기+온몸허리돌리기+족구대(이동식)+족구장,"","","",맹암거(간선)+맹암거(지선)+빗물받이+산책로손잡이+우수관+원형수로관+집수정+측구수로관,,경기도 평택시청,"031-8024-4247","2022-07-11",,37.0652660000,127.0334200000
경기도,수원시 장안구,정자동,"41111130",생활편의형SOC,CVNTL,도시공원,노루말공원,CVNTL_22_41111_01654,,"",경기도 수원시 장안구 정자동 945-2,어린이공원,1500,"",조합놀이대1,"","","",,경기도 수원시 장안구 녹지공원과,"031-228-5995","2022-07-11",,37.3094940000,126.9823600000
경기도,평택시,지제동,"41220121",생활편의형SOC,CVNTL,도시공원,미리내 어린이공원(지제세교지구),CVNTL_22_41220_03268,,"",경기도 평택시 지제동 640-3,어린이공원,2053,"","","","","",2013-09-03,경기도 평택시청,"031-8024-4247","2022-07-11",,37.0155940000,127.0735900000
경기도,평택시,칠원동,"41220105",생활편의형SOC,CVNTL,도시공원,통복2 수변공원(수촌지구),CVNTL_22_41220_03416,,경기도 평택시 수촌길 50,경기도 평택시 칠원동 286,수변공원,13256,"","","","","",2009-12-16,경기도 평택시청,"031-8024-4247","2022-07-11",,37.0208000000,127.1135000000
경기도,평택시,칠원동,"41220105",생활편의형SOC,CVNTL,도시공원,동부 105호 어린이공원(신촌지구),CVNTL_22_41220_03029,,"",경기도 평택시 칠원동 393-4,어린이공원,4053,"","","","","",2009-12-16,경기도 평택시청,"031-8024-4247","2022-07-11",,37.0263670000,127.1094800000
경기도,고양시 일산서구,일산동,"41287101",생활편의형SOC,CVNTL,도시공원,후동공원,CVNTL_22_41287_00215,,경기도 고양시 일산서구 일산로 552-1,경기도 고양시 일산서구 일산동 1400,근린공원,19195,체력단련시설,"","","","",1991-06-29,경기도 고양시 푸른도시사업소,"031-8075-4343","2022-07-11",,37.6798250000,126.7679200000
경기도,안양시 동안구,호계동,"41173104",생활편의형SOC,CVNTL,도시공원,조일소공원,CVNTL_22_41173_02151,,경기도 안양시 동안구 엘에스로91번길 32-41,경기도 안양시 동안구 호계동 1027-18,소공원,1581,"","","","","",2007-09-17,경기도 안양시 공원관리과,"031-8045-5022","2022-07-11",,37.3705830000,126.9476800000
경기도,안양시 동안구,호계동,"41173104",생활편의형SOC,CVNTL,도시공원,신촌어린이공원,CVNTL_22_41173_02127,,경기도 안양시 동안구 동안로 25-1,경기도 안양시 동안구 호계동 1055-2,어린이공원,4449,"","","","","",1989-12-30,경기도 안양시 공원관리과,"031-8045-5022","2022-07-11",,37.3810960000,126.9547400000
경기도,부천시,도당동,"41190104",생활편의형SOC,CVNTL,도시공원,"294호공원",CVNTL_22_41190_01034,,"",경기도 부천시 도당동 214-6,어린이공원,499,"","","","","",2018-09-07,경기도 부천시청,"032-625-4864","2022-07-11",,37.5144800000,126.7748900000
경기도,부천시,도당동,"41190104",생활편의형SOC,CVNTL,도시공원,도당소공원,CVNTL_22_41190_01175,,경기도 부천시 수도로 224,경기도 부천시 도당동 59,어린이공원,3203.8,"",조합놀이대 등 4개,화장실,"","",1967-11-11,경기도 부천시청,"032-625-4856","2022-07-11",,37.5205730000,126.7896900000
경기도,부천시,도당동,"41190104",생활편의형SOC,CVNTL,도시공원,강남공원,CVNTL_22_41190_01032,,경기도 부천시 옥산로172번길 14,경기도 부천시 도당동 271-5,어린이공원,3103.8,"",조합놀이대 등 12종,화장실,"","",2019-05-20,경기도 부천시청,"032-625-4856","2022-07-11",,37.5086940000,126.7815200000
경기도,과천시,원문동,"41290108",생활편의형SOC,CVNTL,도시공원,청사앞소공원,CVNTL_22_41290_00273,,"",경기도 과천시 원문동 1,근린공원,6321,체력단련시설,"","","",조경시설+광장+도로,1980-07-20,경기도 과천시청,"02-3677-2272","2022-07-11",,37.4248960000,126.9897900000
경기도,안양시 동안구,관양동,"41173102",생활편의형SOC,CVNTL,도시공원,관양어린이공원,CVNTL_22_41173_02178,,"",경기도 안양시 동안구 관양동 1413-2,어린이공원,1694,"","","","","",1979-11-29,경기도 안양시 공원관리과,"031-8045-5022","2022-07-11",,37.4075300000,126.9615860000
경기도,안양시 만안구,석수동,"41171102",생활편의형SOC,CVNTL,도시공원,동산어린이공원,CVNTL_22_41171_02256,,"",경기도 안양시 만안구 석수동 485-20,어린이공원,520,"","","","","",2005-05-02,경기도 안양시 공원관리과,"031-8045-5288","2022-07-11",,37.4265140000,126.9023600000
경기도,안양시 동안구,평촌동,"41173103",생활편의형SOC,CVNTL,도시공원,민백어린이공원,CVNTL_22_41173_02181,,경기도 안양시 동안구 부림로 20,경기도 안양시 동안구 평촌동 933-2,어린이공원,7537,"","","","","",1989-12-30,경기도 안양시 공원관리과,"031-8045-5022","2022-07-11",,37.3856740000,126.9699550000
경기도,안양시 만안구,박달동,"41171103",생활편의형SOC,CVNTL,도시공원,한라비발디어린이공원,CVNTL_22_41171_02230,,"",경기도 안양시 만안구 박달동 114-4,어린이공원,1710,"","","","","",1997-10-15,경기도 안양시 공원관리과,"031-8045-5288","2022-07-11",,37.4022250000,126.9020200000
경기도,안양시 만안구,박달동,"41171103",생활편의형SOC,CVNTL,도시공원,친목어린이공원,CVNTL_22_41171_02208,,,경기도 안양시 만안구 박달동 929-9,어린이공원,5644,"","","","","",2005-12-27,경기도 안양시 공원관리과,"031-8045-5288","2022-07-11",,37.4091200000,126.8857400000
경기도,수원시 권선구,권선동,"41113137",생활편의형SOC,CVNTL,도시공원,솔밭공원,CVNTL_22_41113_01449,,"",경기도 수원시 권선구 권선동 1239,어린이공원,1843.2,"",조합놀이대1,화장실1,"","",,경기도 수원시 권선구 녹지공원과,"031-228-6195","2022-07-11",,37.2536900000,127.0383400000
경기도,성남시 분당구,야탑동,"41135107",생활편의형SOC,CVNTL,도시공원,성지공원,CVNTL_22_41135_01277,,"",경기도 성남시 분당구 야탑동 195-1,근린공원,94597.4,"","","","","",1990-06-22,성남시 공원과,"031-729-4382","2022-07-11",,37.4080160000,127.1571700000
경기도,성남시 중원구,은행동,"41133104",생활편의형SOC,CVNTL,도시공원,은행제1호공원,CVNTL_22_41133_01399,,"",경기도 성남시 중원구 은행동 2521,소공원,119,"","","","","",2007-10-29,중원구환경위생과,"031-729-6455","2022-07-11",,37.4543950000,127.1639300000
경기도,고양시 일산서구,대화동,"41287104",생활편의형SOC,CVNTL,도시공원,문화공원2,CVNTL_22_41287_00246,,"",경기도 고양시 일산서구 대화동 2600-2,문화공원,21264,"","","","","",2009-06-26,경기도 고양시 푸른도시사업소,"031-8075-4343","2022-07-11",,37.6673430000,126.7446500000
경기도,연천군,군남면,"41800310",생활편의형SOC,CVNTL,도시공원,공원,CVNTL_22_41800_02420,,"",경기도 연천군 군남면 옥계리 1259-9,소공원,15813,"","","","","",2006-10-16,경기도 연천군청,"031-839-2061","2022-07-11",,38.1286700000,127.0458450000
경기도,양평군,양평읍,"41830250",생활편의형SOC,CVNTL,도시공원,오빈11 어린이공원,CVNTL_22_41830_02367,,"",경기도 양평군 양평읍 오빈리 39-1,어린이공원,1507,"","","","","",2013-10-15,경기도 양평군청,"031-770-2358","2022-07-11",,37.5088000000,127.4793800000
경기도,안성시,공도읍,"41550250",생활편의형SOC,CVNTL,도시공원,"21호어린이공원",CVNTL_22_41550_02083,,"",경기도 안성시 공도읍 진사리 20-2,어린이공원,1500,"","","","","",1999-08-25,안성시청,"031-678-5392","2022-07-11",,36.9925800000,127.1386200000
경기도,안양시 동안구,관양동,"41173102",생활편의형SOC,CVNTL,도시공원,향기어린이공원,CVNTL_22_41173_02172,,"",경기도 안양시 동안구 관양동 1486-6,어린이공원,1693,"","","","","",1979-11-29,경기도 안양시 공원관리과,"031-8045-5022","2022-07-11",,37.4022000000,126.9740600000
경기도,안산시 단원구,신길동,"41273103",생활편의형SOC,CVNTL,도시공원,신길역사공원,CVNTL_22_41273_01920,,"",경기도 안산시 단원구 신길동 1536,역사공원,15100,"","","","","",2009-08-30,경기도 안산시청,"031-481-2468","2022-07-11",,37.3357350000,126.7857200000
경기도,김포시,운양동,"41570103",생활편의형SOC,CVNTL,도시공원,한강소공원17,CVNTL_22_41570_00672,,"",경기도 김포시 운양동 1321-13,소공원,1088,체력단련시설,"","","","",2007-10-29,경기도 김포시 공원관리과,"031-980-5627","2022-07-11",,37.6480700000,126.6987150000
경기도,안양시 동안구,평촌동,"41173103",생활편의형SOC,CVNTL,도시공원,중앙공원,CVNTL_22_41173_02182,,경기도 안양시 동안구 관평로 149,경기도 안양시 동안구 평촌동 895,근린공원,119843,"","","","","",1989-12-30,경기도 안양시 공원관리과,"031-8045-5015","2022-07-11",,37.3898430000,126.9596560000
경기도,안산시 단원구,와동,"41273102",생활편의형SOC,CVNTL,도시공원,와동공원,CVNTL_22_41273_01964,,경기도 안산시 단원구 와동로1길 20,경기도 안산시 단원구 와동 724,어린이공원,1564.5,"","조합놀이대, 시소, 그네","","","",1992-01-01,경기도 안산시청,"031-481-6412","2022-07-11",,37.3330800000,126.8252100000
경기도,성남시 분당구,삼평동,"41135109",생활편의형SOC,CVNTL,도시공원,판교제20호(달팽이)공원,CVNTL_22_41135_01261,,"",경기도 성남시 분당구 삼평동 699,어린이공원,4164,"",어린이놀이터,벤치,"","",2006-03-22,분당구녹지공원과,"031-729-8092","2022-07-11",,37.4043580000,127.1080100000
경기도,수원시 권선구,평동,"41113127",생활편의형SOC,CVNTL,도시공원,은하수공원,CVNTL_22_41113_01535,,"",경기도 수원시 권선구 평동 48-54,근린공원,9402,"",야외무대1+저류지1,화장실1,"","",,경기도 수원시 권선구 녹지공원과,"031-228-6195","2022-07-11",,37.2563060000,126.9942900000
경기도,수원시 영통구,신동,"41117106",생활편의형SOC,CVNTL,도시공원,동그라미공원,CVNTL_22_41117_01572,,"",경기도 수원시 영통구 신동 927-2,어린이공원,1527,"",조합놀이대1,"","","",,경기도 수원시 영통구 녹지공원과,"031-228-8331","2022-07-11",,37.2478330000,127.0429400000
경기도,수원시 권선구,금곡동,"41113134",생활편의형SOC,CVNTL,도시공원,두물맞이공원,CVNTL_22_41113_01477,,"",경기도 수원시 권선구 금곡동 1099,수변공원,31022.7,배드민턴장1,"","","","",,경기도 경기도 수원시 권선구 녹지공원과,"031-228-6195","2022-07-11",,37.2697330000,126.9407040000
경기도,이천시,관고동,"41500102",생활편의형SOC,CVNTL,도시공원,마전터공원,CVNTL_22_41500_02748,,,경기도 이천시 관고동 501-9,어린이공원,1000,농구대,조합놀이대,"","","",1989-08-07,경기도 이천시청,"031-645-3844","2022-07-11",,37.2788320000,127.4361053000
경기도,여주시,점봉동,"41670115",생활편의형SOC,CVNTL,도시공원,여주IC앞소공원,CVNTL_22_41670_02400,,"",경기도 여주시 점봉동 233,소공원,987,"","",벤치,"","",,경기도 여주시청 산림공원과,"031-887-2603","2022-07-11",,37.2541160000,127.6478650000
경기도,화성시,장안면,"41590370",생활편의형SOC,CVNTL,도시공원,공원,CVNTL_22_41590_03599,,경기도 화성시 장안면 장안공단6길 46,경기도 화성시 장안면 금의리 761-6,소공원,3061,"","",등의자 등,"","",2006-07-11,경기도 화성시청 공원관리과,"031-5189-6626","2022-07-11",,37.1122900000,126.8388060000
경기도,광주시,초월읍,"41610253",생활편의형SOC,CVNTL,도시공원,초월1소공원,CVNTL_22_41610_00375,,"",경기도 광주시 초월읍 지월리 889,소공원,1461,"","","","","",2014-12-01,광주도시관리공사,"031-762-1039","2022-07-11",,37.4162940000,127.3080200000
경기도,안성시,대덕면,"41550350",생활편의형SOC,CVNTL,도시공원,"24호공원",CVNTL_22_41550_02107,,"",경기도 안성시 대덕면 내리 696,어린이공원,1900,"","","","","",1991-01-08,안성시청,"031-678-5392","2022-07-11",,37.0010870000,127.2223200000
경기도,포천시,영북면,"41650390",생활편의형SOC,CVNTL,도시공원,운천공원,CVNTL_22_41650_03485,,경기도 포천시 영북면 영북로170번길 12-12,경기도 포천시 영북면 운천리 산 17-1,근린공원,50000,"","","","","",1974-07-08,경기도 포천시청 생태공원과,"031-538-2358","2022-07-11",,38.0890700000,127.2760400000
경기도,화성시,정남면,"41590410",생활편의형SOC,CVNTL,도시공원,귀래생태공원,CVNTL_22_41590_03554,,"",경기도 화성시 정남면 귀래리 209-4,수변공원,54000,"","",산책로 등,"","",2007-11-12,경기도 화성시청 공원관리과,"031-5189-6626","2022-07-11",,37.1253430000,126.9996400000
경기도,양주시,남면,"41630320",생활편의형SOC,CVNTL,도시공원,검준 근린공원,CVNTL_22_41630_02356,,경기도 양주시 남면 검준길 60,경기도 양주시 남면 상수리 667-10,근린공원,1541,"","","","","",2002-11-06,경기도 양주시청 공원사업과,"031-8082-7311","2022-07-11",,37.8648530000,126.9958200000
경기도,성남시 수정구,복정동,"41131107",생활편의형SOC,CVNTL,도시공원,복고개공원,CVNTL_22_41131_01368,,"",경기도 성남시 수정구 복정동 638,어린이공원,4510.7,"",어린이놀이터,벤치,"","",1998-12-07,수정구환경위생과,"031-729-5452","2022-07-11",,37.4664650000,127.1296000000
경기도,성남시 수정구,복정동,"41131107",생활편의형SOC,CVNTL,도시공원,주산도공원,CVNTL_22_41131_01370,,"",경기도 성남시 수정구 복정동 670,어린이공원,2202.4,"",어린이놀이터,벤치,"","",1998-12-07,수정구환경위생과,"031-729-5452","2022-07-11",,37.4609640000,127.1288800000
경기도,파주시,문발동,"41480115",생활편의형SOC,CVNTL,도시공원,달맞이공원,CVNTL_22_41480_02805,,"",경기도 파주시 문발동 599,근린공원,24264,"","","","","",2006-12-11,경기도 파주시 공원관리과,"031-940-5381","2022-07-11",,37.7202950000,126.7071840000
경기도,오산시,가수동,"41370121",생활편의형SOC,CVNTL,도시공원,세교2 제4호 소공원,CVNTL_22_41370_02452,,"",경기도 오산시 가수동 92-1,소공원,257,"","","","","",2013-12-24,경기도 오산시환경사업소 공원녹지과,"031-8036-6473","2022-07-11",,37.1445100000,127.0523800000
경기도,시흥시,능곡동,"41390118",생활편의형SOC,CVNTL,도시공원,실개울공원,CVNTL_22_41390_01846,,"",경기도 시흥시 능곡동 777,어린이공원,5351,"",조합놀이대,"","","",2004-11-10,경기도 시흥시청,"031-310-3871","2022-07-11",,37.3655700000,126.8105500000
경기도,남양주시,진접읍,"41360253",생활편의형SOC,CVNTL,도시공원,진접3호두리공원,CVNTL_22_41360_00934,,"",경기도 남양주시 진접읍 금곡리 978,근린공원,11027,"","","","","",,경기도 남양주시청,"031-590-8601","2022-07-11",,37.7221150000,127.1964600000
경기도,의왕시,포일동,"41430109",생활편의형SOC,CVNTL,도시공원,두산위브공원,CVNTL_22_41430_02554,,"",경기도 의왕시 포일동 638-2,소공원,518.7,"","","","","",2006-09-11,경기도 의왕시청,"031-345-3534","2022-07-11",,37.3918000000,126.9793500000
경기도,군포시,부곡동,"41410103",생활편의형SOC,CVNTL,도시공원,하늘어린이공원,CVNTL_22_41410_00600,,"",경기도 군포시 부곡동 1121,어린이공원,1513.9,"","","","","",2003-06-20,경기도 군포시청,"031-390-0478","2022-07-11",,37.3248180000,126.9456000000
경기도,안성시,옥산동,"41550122",생활편의형SOC,CVNTL,도시공원,알미산공원,CVNTL_22_41550_02115,,경기도 안성시 알미산로 93,경기도 안성시 옥산동 365,근린공원,16504,"","","","","",1998-06-17,안성시청,"031-678-5392","2022-07-11",,37.0042150000,127.2503300000
경기도,김포시,고촌읍,"41570253",생활편의형SOC,CVNTL,도시공원,고촌1관문공원,CVNTL_22_41570_00777,,"",경기도 김포시 고촌읍 신곡리 산108,문화공원,47412,"","","","","",2011-12-29,경기도 김포시 공원녹지과,"031-980-2344","2022-07-11",,37.6052900000,126.7656600000
경기도,파주시,동패동,"41480113",생활편의형SOC,CVNTL,도시공원,소공원 2호,CVNTL_22_41480_02891,,"",경기도 파주시 동패동 1770,소공원,1095,"","","","","",2014-12-29,경기도 파주시 공원관리과,"031-940-8691","2022-07-11",,37.7086500000,126.7413600000
경기도,광명시,철산동,"41210102",생활편의형SOC,CVNTL,도시공원,도덕파크공원,CVNTL_22_41210_00351,,"",경기도 광명시 철산동 618,어린이공원,1500,"","","","","",1987-06-08,경기도 광명시청,"02-2680-6298","2022-07-11",,37.4697760000,126.8654900000
경기도,부천시,상동,"41190109",생활편의형SOC,CVNTL,도시공원,푸른솔공원,CVNTL_22_41190_01090,,"",경기도 부천시 상동 520-13,어린이공원,2212.1,"",그네 등 7개,"","","",1998-12-17,경기도 부천시청,"032-625-4846","2022-07-11",,37.5136380000,126.7519760000
경기도,여주시,가남읍,"41670250",생활편의형SOC,CVNTL,도시공원,태평5호공원,CVNTL_22_41670_02413,,경기도 여주시 가남읍 태평3길 39-5,경기도 여주시 가남읍 태평리 769,어린이공원,1741,팔돌리기등 4종,아이누리놀이터,파고라,"","",,경기도 여주시청 산림공원과,"031-887-2605","2022-07-11",,37.2067450000,127.5450100000
경기도,김포시,풍무동,"41570107",생활편의형SOC,CVNTL,도시공원,김포어린이24공원,CVNTL_22_41570_00804,,"",경기도 김포시 풍무동 769,어린이공원,1572,체력단련시설,"조합놀이대,그네","","","",2010-01-29,경기도 김포시 공원관리과,"031-980-5627","2022-07-11",,37.6031150000,126.7224660000
경기도,김포시,풍무동,"41570107",생활편의형SOC,CVNTL,도시공원,김포어린이26공원,CVNTL_22_41570_00805,,"",경기도 김포시 풍무동 801,어린이공원,1916,"","","","","",2010-01-29,경기도 김포시 공원관리과,"031-980-5627","2022-07-11",,37.5979100000,126.7251360000
경기도,김포시,풍무동,"41570107",생활편의형SOC,CVNTL,도시공원,풍무어린이공원,CVNTL_22_41570_00798,,"",경기도 김포시 풍무동 765,어린이공원,7123,체력단련시설,조합놀이대,"","","",2007-11-05,경기도 김포시 공원관리과,"031-980-5627","2022-07-11",,37.6036000000,126.7263700000
경기도,안산시 단원구,초지동,"41273107",생활편의형SOC,CVNTL,도시공원,초지1문화공원,CVNTL_22_41273_01881,,경기도 안산시 단원구 초지시장로 18,경기도 안산시 단원구 초지동 590,문화공원,3102,"","","","","산책로, 진입광장, 휴게소",2011-03-28,경기도 안산시청,"031-481-2471","2022-07-11",,37.3237040000,126.8056260000
경기도,안산시 단원구,초지동,"41273107",생활편의형SOC,CVNTL,도시공원,초지상문화공원,CVNTL_22_41273_01882,,경기도 안산시 단원구 원초로 90,경기도 안산시 단원구 초지동 606-9,문화공원,2958,"","","","","산책로, 진입광장, 휴게소",2011-03-28,경기도 안산시청,"031-481-2471","2022-07-11",,37.3236900000,126.8069500000
경기도,고양시 일산동구,백석동,"41285106",생활편의형SOC,CVNTL,도시공원,방기공원,CVNTL_22_41285_00136,,경기도 고양시 일산동구 강송로113번길 36-14,경기도 고양시 일산동구 백석동 1206,어린이공원,3167,체력단련시설,조합놀이대+그네+흔들놀이기구(흔들말),화장실,"","",1990-03-31,경기도 고양시 일산동구청,"031-8075-6263","2022-07-11",,37.6485100000,126.7848360000
경기도,고양시 덕양구,원흥동,"41281104",생활편의형SOC,CVNTL,도시공원,원흥지구 소공원,CVNTL_22_41281_00020,,"",경기도 고양시 덕양구 원흥동 718,소공원,2681,"","","","","",2009-09-28,경기도 고양시 덕양구청,"031-8075-5267","2022-07-11",,37.6373370000,126.8717300000
경기도,고양시 일산서구,주엽동,"41287102",생활편의형SOC,CVNTL,도시공원,문촌공원,CVNTL_22_41287_00224,,경기도 고양시 일산서구 주엽로 173-4,경기도 고양시 일산서구 주엽동 10,어린이공원,4901,체력단련시설,조합놀이대+그네+흔들놀이대,화장실,"","",1991-06-29,경기도 고양시 일산서구청,"031-8075-7266","2022-07-11",,37.6747440000,126.7584500000
경기도,고양시 일산서구,주엽동,"41287102",생활편의형SOC,CVNTL,도시공원,주엽공원,CVNTL_22_41287_00225,,경기도 고양시 일산서구 주화로 65-3,경기도 고양시 일산서구 주엽동 118,근린공원,19614,체력단련시설,"","","","",1991-06-29,경기도 고양시 푸른도시사업소,"031-8075-4343","2022-07-11",,37.6686740000,126.7603760000
경기도,동두천시,지행동,"41250102",생활편의형SOC,CVNTL,도시공원,행단공원,CVNTL_22_41250_00998,,"",경기도 동두천시 지행동 214,소공원,3948,"","","","","",,동두천시청 공원녹지과,"031-860-2416","2022-07-11",,37.8879660000,127.0681700000
경기도,광명시,소하동,"41210104",생활편의형SOC,CVNTL,도시공원,달맞이공원,CVNTL_22_41210_00317,,"",경기도 광명시 소하동 1299,어린이공원,9191,"","","","","",2004-01-06,경기도 광명시청,"02-2680-6298","2022-07-11",,37.4557000000,126.8843100000
경기도,고양시 덕양구,화정동,"41281123",생활편의형SOC,CVNTL,도시공원,화정중앙공원,CVNTL_22_41281_00043,,경기도 고양시 덕양구 화신로 266-1,경기도 고양시 덕양구 화정동 985,근린공원,12215,체력단련시설,"","","","",1991-12-31,경기도 고양시 푸른도시사업소,"031-8075-4323","2022-07-11",,37.6314000000,126.8319850000
경기도,수원시 장안구,하광교동,"41111139",생활편의형SOC,CVNTL,도시공원,광교공원,CVNTL_22_41111_01690,,경기도 수원시 장안구 광교산로 159,경기도 수원시 장안구 하광교동 393-2,근린공원,25849,"",음악분수1+터널분수1+벽천1+계류1+야외무대1,"","","",,경기도 수원시 장안구 녹지공원과,"031-228-5995","2022-07-11",,37.3015060000,127.0312650000
경기도,부천시,원미동,"41190101",생활편의형SOC,CVNTL,도시공원,원미별빛공원,CVNTL_22_41190_01181,,경기도 부천시 부천로90번길 51,경기도 부천시 원미동 127-5,어린이공원,2638.6,농구장,그네 등 3개,화장실,"","",2006-02-27,경기도 부천시청,"032-625-4844","2022-07-11",,37.4919660000,126.7872850000
경기도,안산시 상록구,사동,"41271103",생활편의형SOC,CVNTL,도시공원,푸른공원,CVNTL_22_41271_02017,,경기도 안산시 상록구 서암로4길 18,경기도 안산시 상록구 사동 1202,어린이공원,997.5,"","조합놀이대,그네","","","",1997-01-01,경기도 안산시청,"031-481-5436","2022-07-11",,37.3025320000,126.8515200000
경기도,평택시,용이동,"41220124",생활편의형SOC,CVNTL,도시공원,사랑방 어린이공원(용죽지구),CVNTL_22_41220_03035,,"",경기도 평택시 용이동 673,어린이공원,2781,오금펴기운동+온몸근육운동+하늘걷기운동+허리돌리기운동,강아지흔들놀이대+고양이흔들놀이대+그네놀이대+놀이시설 경계+양흔들놀이대+조합놀이대4,"","",배수관+집수정,2010-11-24,경기도 평택시청,"031-8024-4247","2022-07-11",,36.9942250000,127.1279600000
경기도,평택시,용이동,"41220124",생활편의형SOC,CVNTL,도시공원,현신 근린공원(용이지구 1호),CVNTL_22_41220_03036,,경기도 평택시 현신6길 56,경기도 평택시 용이동 494-1,근린공원,12538,농구대+농구장+미니축구장+어깨근육풀기+옆파도타기+온몸허리돌리기+윗몸일으키기+족구대+족구장+축구대+하늘걷기,고무칩포장+조합놀이대+흔들놀이,음수전+화장실+휠체어경사로,"",상수관로+새들분수전+우수관+집수정,2005-10-24,경기도 평택시청,"031-8024-4247","2022-07-11",,36.9985800000,127.1508200000
경기도,평택시,용이동,"41220124",생활편의형SOC,CVNTL,도시공원,현촌 근린공원(현촌지구),CVNTL_22_41220_03037,,"",경기도 평택시 용이동 602-2,근린공원,45228.6,마라톤운동기+배드민턴장+배드민턴지주대+어깨근육풀기+옆파도타기+온몸근육풀기+온몸허리돌리기+하늘걷기,고무칩포장+그네+그네보호대+시소+조합놀이대,화장실,"",PVC이중벽관+맹암거+수목보호홀덮개+우수관+집수정+트랜치,2010-09-24,경기도 평택시청,"031-8024-4247","2022-07-11",,36.9974060000,127.1306300000
경기도,파주시,동패동,"41480113",생활편의형SOC,CVNTL,도시공원,소공원 23호,CVNTL_22_41480_02896,,"",경기도 파주시 동패동 1876,소공원,304,"","","","","",2014-12-29,경기도 파주시 공원관리과,"031-940-8691","2022-07-11",,37.7127800000,126.7359600000
경기도,평택시,장안동,"41220108",생활편의형SOC,CVNTL,도시공원,제1호 어린이공원(브레인시티),CVNTL_22_41220_03418,,경기도 평택시 삼남로 357,경기도 평택시 장안동 60-1,어린이공원,1515,"","","","","",2010-03-15,경기도 평택시청,"031-8024-4247","2022-07-11",,37.0575330000,127.0926060000
경기도,평택시,장안동,"41220108",생활편의형SOC,CVNTL,도시공원,제2호 근린공원(브레인시티 일반산업단지),CVNTL_22_41220_03419,,경기도 평택시 삼남로 351,경기도 평택시 장안동 61-1,근린공원,13757,"","","","","",2010-03-15,경기도 평택시청,"031-8024-4247","2022-07-11",,37.0568430000,127.0930940000
경기도,부천시,소사본동,"41190110",생활편의형SOC,CVNTL,도시공원,"169호(백동단지)공원",CVNTL_22_41190_01076,,"",경기도 부천시 소사본동 425,소공원,1070,"","","","","",2006-01-16,경기도 부천시청,"032-625-4854","2022-07-11",,37.4756050000,126.7999200000
경기도,평택시,팽성읍,"41220250",생활편의형SOC,CVNTL,도시공원,남산 근린공원,CVNTL_22_41220_03422,,경기도 평택시 팽성읍 팽성송화로 76,경기도 평택시 팽성읍 남산리 산 49-1,근린공원,43411,"","","","","",2010-12-30,경기도 평택시청,"031-8024-4247","2022-07-11",,36.9545560000,127.0549000000
경기도,평택시,고덕동,"41220128",생활편의형SOC,CVNTL,도시공원,수변공원 13호(고덕국제화지구  장당동),CVNTL_22_41220_03412,,"",경기도 평택시 장당동 559-1,수변공원,13428,"","","","","",2013-01-04,경기도 평택시청,"031-8024-4247","2022-07-11",,37.0462230000,127.0487900000
경기도,고양시 덕양구,향동동,"41281132",생활편의형SOC,CVNTL,도시공원,향동어린이1공원,CVNTL_22_41281_00027,,"",경기도 고양시 덕양구 향동동 135-6,어린이공원,1590,"","","","","",2009-12-30,경기도 고양시 덕양구청,"031-8075-5267","2022-07-11",,37.6019940000,126.8913100000
경기도,광명시,하안동,"41210103",생활편의형SOC,CVNTL,도시공원,소망공원,CVNTL_22_41210_00307,,"",경기도 광명시 하안동 650-6,어린이공원,1500,"","","","","",1987-12-24,경기도 광명시청,"02-2680-6298","2022-07-11",,37.4635430000,126.8752600000
경기도,평택시,진위면,"41220310",생활편의형SOC,CVNTL,도시공원,봉남 근린공원,CVNTL_22_41220_03295,,"",경기도 평택시 진위면 봉남리 산22-1,근린공원,0,"","","","","",2006-06-13,경기도 평택시청,"031-8024-4247","2022-07-11",,37.1058500000,127.0903100000
경기도,광명시,소하동,"41210104",생활편의형SOC,CVNTL,도시공원,물결공원,CVNTL_22_41210_00322,,"",경기도 광명시 소하동 1305-10,어린이공원,3298,"","","","","",2004-01-06,경기도 광명시청,"02-2680-6298","2022-07-11",,37.4508900000,126.8825800000
경기도,평택시,현덕면,"41220370",생활편의형SOC,CVNTL,도시공원,문화공원 2호(황해경제구역 현덕지구),CVNTL_22_41220_03193,,"",경기도 평택시 현덕면 장수리 353-3,문화공원,27298,"","","","","",2016-06-17,경기도 평택시청,"031-8024-4247","2022-07-11",,36.9338800000,126.9033400000
경기도,고양시 덕양구,화정동,"41281123",생활편의형SOC,CVNTL,도시공원,꽃우물공원,CVNTL_22_41281_00042,,"",경기도 고양시 덕양구 화정동 950,근린공원,12881,체력단련시설,"","","","",1991-12-31,경기도 고양시 푸른도시사업소,"031-8075-4323","2022-07-11",,37.6282770000,126.8278960000
경기도,평택시,안중읍,"41220253",생활편의형SOC,CVNTL,도시공원,대반리 소공원(대반지구),CVNTL_22_41220_03420,,경기도 평택시 안중읍 대반4길 73-11,경기도 평택시 안중읍 대반리 468-3,소공원,888,"","","","","",2012-06-14,경기도 평택시청,"031-8024-4247","2022-07-11",,36.9801030000,126.9536800000
경기도,평택시,세교동,"41220120",생활편의형SOC,CVNTL,도시공원,향촌 어린이공원,CVNTL_22_41220_03228,,"",경기도 평택시 세교동 560-1,어린이공원,1525,등허리지압기+온몸허리돌리기+하늘걷기,고무칩포장+그네+그네보호대+모래포장+조합놀이대+하늘과자연의 소리+흔들놀이,화장실,"",조형물옹벽+집수정,1992-03-13,경기도 평택시청,"031-8024-4247","2022-07-11",,37.0018840000,127.0793200000
경기도,부천시,약대동,"41190105",생활편의형SOC,CVNTL,도시공원,살말공원,CVNTL_22_41190_01059,,"",경기도 부천시 약대동 195,어린이공원,4230,농구장,그네 등 2개,화장실,"","",2005-12-26,경기도 부천시청,"032-625-4864","2022-07-11",,37.5119360000,126.7674900000
경기도,평택시,동삭동,"41220119",생활편의형SOC,CVNTL,도시공원,상서재 어린이공원(서재지구 75호),CVNTL_22_41220_03239,,"",경기도 평택시 동삭동 678-3,어린이공원,2107,마라톤운동기+온몸근육풀기+온몸역기올리기+온몸허리돌리기,고무칩(적색)+그네+그네보호대+시소+조합놀이대+회전놀이대+흔들놀이,"","",수목보호받침틀+우수관+집수정,2005-01-05,경기도 평택시청,"031-8024-4247","2022-07-11",,37.0118100000,127.0995600000
경기도,부천시,소사본동,"41190110",생활편의형SOC,CVNTL,도시공원,"291호공원",CVNTL_22_41190_01077,,경기도 부천시 경인로 425,경기도 부천시 소사본동 53,어린이공원,1274.5,"","","","","",2018-09-07,경기도 부천시청,"032-625-4854","2022-07-11",,37.4822770000,126.8018700000
경기도,고양시 일산동구,식사동,"41285101",생활편의형SOC,CVNTL,도시공원,식사어린이2(식사숲속)공원,CVNTL_22_41285_00168,,"",경기도 고양시 일산동구 식사동 1496,어린이공원,2605,"",흔들놀이기구+기타,"","","",2005-08-24,경기도 고양시 일산동구청,"031-8075-6263","2022-07-11",,37.6827700000,126.8171700000
경기도,평택시,팽성읍,"41220250",생활편의형SOC,CVNTL,도시공원,노와이주1호 소공원(노와지구13호),CVNTL_22_41220_03109,,"",경기도 평택시 팽성읍 노와리 460-3,소공원,697.2,"","","","","",2008-10-23,경기도 평택시청,"031-8024-4247","2022-07-11",,36.9468100000,127.0926500000
경기도,안산시 단원구,원곡동,"41273108",생활편의형SOC,CVNTL,도시공원,원곡공원,CVNTL_22_41273_01901,,"",경기도 안산시 단원구 원곡동 780,문화공원,34406,"",놀이터,"주차장,화장실",충혼탑,"",1984-08-11,경기도 안산시청,"031-481-2468","2022-07-11",,37.3328970000,126.7943700000
경기도,평택시,현덕면,"41220370",생활편의형SOC,CVNTL,도시공원,너른뜰체육공원,CVNTL_22_41220_03197,,"",경기도 평택시 현덕면 운정리 산40-1,근린공원,29593,"","","","","",2013-10-04,경기도 평택시청,"031-8024-4247","2022-07-11",,36.9759700000,126.8994700000
경기도,고양시 덕양구,토당동,"41281120",생활편의형SOC,CVNTL,도시공원,토당 4공원,CVNTL_22_41281_00060,,"",경기도 고양시 덕양구 토당동 874-2,어린이공원,1500,"",조합놀이대,"","","",1986-12-31,경기도 고양시 덕양구청,"031-8075-5267","2022-07-11",,37.6207800000,126.8260000000
경기도,동두천시,생연동,"41250103",생활편의형SOC,CVNTL,도시공원,생연3어린이공원,CVNTL_22_41250_01017,,경기도 동두천시 동두천로 177,경기도 동두천시 생연동 715-3,어린이공원,2485,"","","","","",,동두천시청 공원녹지과,"031-860-2416","2022-07-11",,37.8974800000,127.0545900000
경기도,안양시 만안구,박달동,"41171103",생활편의형SOC,CVNTL,도시공원,일직수변공원,CVNTL_22_41171_02221,,"",경기도 안양시 만안구 박달동 산89-1,수변공원,10049,"","","","","",2007-11-16,경기도 안양시 공원관리과,"031-8045-5025","2022-07-11",,37.4111440000,126.8836060000
경기도,부천시,상동,"41190109",생활편의형SOC,CVNTL,도시공원,소망공원,CVNTL_22_41190_01098,,"",경기도 부천시 상동 233,어린이공원,3300.4,"",조합놀이대 등 2개,"","","",1980-10-07,경기도 부천시청,"032-625-4846","2022-07-11",,37.4920650000,126.7629400000
경기도,안양시 동안구,호계동,"41173104",생활편의형SOC,CVNTL,도시공원,먹거리촌어린이공원,CVNTL_22_41173_02130,,경기도 안양시 동안구 동안로 73,경기도 안양시 동안구 호계동 1053-3,어린이공원,3680,"","","","","",1989-12-30,경기도 안양시 공원관리과,"031-8045-5022","2022-07-11",,37.3855550000,126.9536740000
경기도,평택시,세교동,"41220120",생활편의형SOC,CVNTL,도시공원,소공원 1호(세교지구),CVNTL_22_41220_03236,,"",경기도 평택시 세교동 산6-2,소공원,1287,"","","","","",2010-04-01,경기도 평택시청,"031-8024-4247","2022-07-11",,37.0106900000,127.0910000000
경기도,의정부시,녹양동,"41150111",생활편의형SOC,CVNTL,도시공원,군마근린공원,CVNTL_22_41150_02657,,"",경기도 의정부시 녹양동 406-3,근린공원,13437.9,평행봉+ 다리흔들기+ 허리돌리기 등,조합놀이대+ 흔들놀이기구,"","",공원등+ CCTV 등,,경기도 의정부시청,"031-828-2414","2022-07-11",,37.7629240000,127.0424960000
경기도,안산시 단원구,와동,"41273102",생활편의형SOC,CVNTL,도시공원,광덕산밑공원,CVNTL_22_41273_01963,,경기도 안산시 단원구 사세충열로1길 24-17,경기도 안산시 단원구 와동 710-4,어린이공원,1532.7,"","조합놀이대, 시소, 그네","","","",1997-01-01,경기도 안산시청,"031-481-6412","2022-07-11",,37.3375550000,126.8293800000
경기도,평택시,군문동,"41220115",생활편의형SOC,CVNTL,도시공원,군문 수변공원,CVNTL_22_41220_03359,,"",경기도 평택시 군문동 201-1,수변공원,9955,"","","","","",2012-06-14,경기도 평택시청,"031-8024-4247","2022-07-11",,36.9820330000,127.0917600000
경기도,양평군,양평읍,"41830250",생활편의형SOC,CVNTL,도시공원,오빈15호 소공원,CVNTL_22_41830_02391,,경기도 양평군 양평읍 오빈1리길 9,경기도 양평군 양평읍 오빈리 81-32,소공원,293,"","","","","",2013-10-15,경기도 양평군청,"031-770-2358","2022-07-11",,37.5069850000,127.4796750000
경기도,안양시 동안구,관양동,"41173102",생활편의형SOC,CVNTL,도시공원,한미어린이공원,CVNTL_22_41173_02203,,"",경기도 안양시 동안구 관양동 1478,어린이공원,858,"","","","","",1979-11-29,경기도 안양시 공원관리과,"031-8045-5022","2022-07-11",,37.4029770000,126.9723300000
경기도,수원시 권선구,입북동,"41113140",생활편의형SOC,CVNTL,도시공원,달누리수변공원,CVNTL_22_41113_01518,,"",경기도 수원시 권선구 입북동 816,어린이공원,2002.2,"",조합놀이대1,"","","",,경기도 수원시 권선구 녹지공원과,"031-228-6195","2022-07-11",,37.2978440000,126.9534500000
경기도,성남시 분당구,판교동,"41135108",생활편의형SOC,CVNTL,도시공원,판교제4호(판교)공원,CVNTL_22_41135_01245,,경기도 성남시 분당구 운중로225번길 37,경기도 성남시 분당구 판교동 553,근린공원,1204532.2,배드민턴장+게이트볼장,"","",탐방객센터+수영장,인공암벽장+묵논습지 복원마당+반딧불이습지원,2004-12-30,성남시 공원과,"031-729-4382","2022-07-11",,37.3920140000,127.0905400000
경기도,부천시,작동,"41190119",생활편의형SOC,CVNTL,도시공원,전원3단지공원,CVNTL_22_41190_01165,,"",경기도 부천시 작동 371-4,어린이공원,1531.3,"",조합놀이대 등 2개,"","","",1995-03-27,경기도 부천시청,"032-625-4855","2022-07-11",,37.5076750000,126.8124160000
경기도,수원시 권선구,세류동,"41113126",생활편의형SOC,CVNTL,도시공원,"64호소공원",CVNTL_22_41113_01423,,"",경기도 수원시 권선구 세류동 1273,소공원,1478.7,"",휴게쉼터,"","","",,경기도 수원시 권선구 녹지공원과,"031-228-6195","2022-07-11",,37.2616840000,127.0046700000
경기도,김포시,운양동,"41570103",생활편의형SOC,CVNTL,도시공원,한강어린이13공원,CVNTL_22_41570_00687,,"",경기도 김포시 운양동 1293-1,어린이공원,8194,배드민턴장,"조합놀이대, 물놀이시설, 그네, 흔들놀이","","","",2007-10-29,경기도 김포시 공원관리과,"031-980-5627","2022-07-11",,37.6540530000,126.6888900000
경기도,평택시,비전동,"41220118",생활편의형SOC,CVNTL,도시공원,롯데캐슬 소공원,CVNTL_22_41220_03307,,"",경기도 평택시 비전동 953,소공원,1361.7,옆파도타기+온몸허리돌리기+하늘걷기,"","","",배수로+빗물받이+집수정+트랜치+화강석옹벽(울타리),2008-08-28,경기도 평택시청,"031-8024-4247","2022-07-11",,36.9997980000,127.0960400000
경기도,김포시,장기동,"41570104",생활편의형SOC,CVNTL,도시공원,한강소공원6,CVNTL_22_41570_00700,,"",경기도 김포시 장기동 1940-4,소공원,420,"","","","","",2007-10-29,경기도 김포시 공원관리과,"031-980-5627","2022-07-11",,37.6474460000,126.6750400000
경기도,평택시,비전동,"41220118",생활편의형SOC,CVNTL,도시공원,동일 어린이공원,CVNTL_22_41220_03320,,"",경기도 평택시 비전동 888-1,어린이공원,2411,어깨근육풀기+온몸허리돌리기+하늘걷기,고무매트포장+그네+그네보호대+등반및사다리놀이대+모래포장+시소+조합놀이대,"","",PE 빗물받이+맹암거(간선)+맹암거(지선)+산마루측구+우수관+집수정+측구수로관,1994-01-11,경기도 평택시청,"031-8024-4247","2022-07-11",,36.9924600000,127.1184540000
경기도,김포시,양촌읍,"41570256",생활편의형SOC,CVNTL,도시공원,양곡제3근린공원,CVNTL_22_41570_00757,,경기도 김포시 양촌읍 양곡로467번길 19,경기도 김포시 양촌읍 양곡리 1259,근린공원,20439,"","","주차장, 화장실","","",2005-01-05,경기도 김포시 공원관리과,"031-980-5627","2022-07-11",,37.6561280000,126.6321400000
경기도,안산시 단원구,와동,"41273102",생활편의형SOC,CVNTL,도시공원,복지공원,CVNTL_22_41273_01960,,경기도 안산시 단원구 와동로7안길 7,경기도 안산시 단원구 와동 123,어린이공원,722.7,"","조합놀이대, 시소, 그네","","","",1994-01-01,경기도 안산시청,"031-481-6412","2022-07-11",,37.3398000000,126.8279400000
경기도,수원시 영통구,영통동,"41117105",생활편의형SOC,CVNTL,도시공원,달님공원,CVNTL_22_41117_01597,,"",경기도 수원시 영통구 영통동 1052-4,어린이공원,4865.2,다목적구장,조합놀이대1,"","","",,경기도 수원시 영통구 녹지공원과,"031-228-8331","2022-07-11",,37.2628670000,127.0842600000
경기도,수원시 권선구,평동,"41113127",생활편의형SOC,CVNTL,도시공원,"14호문화공원",CVNTL_22_41113_01532,,경기도 수원시 권선구 평동로77번길 14-9,경기도 수원시 권선구 평동 2-36,문화공원,2678.3,"","","","",주차장,,경기도 경기도 수원시 권선구 녹지공원과,"031-228-6195","2022-07-11",,37.2585800000,126.9925000000
경기도,수원시 장안구,이목동,"41111131",생활편의형SOC,CVNTL,도시공원,"104호수변공원",CVNTL_22_41111_01664,,"",경기도 수원시 장안구 이목동 519-138,수변공원,966,"","",휴게쉼터,"","",,경기도 수원시 장안구 녹지공원과,"031-228-5995","2022-07-11",,37.3128660000,126.9822700000
경기도,시흥시,정왕동,"41390132",생활편의형SOC,CVNTL,도시공원,정왕4공원,CVNTL_22_41390_01757,,"",경기도 시흥시 정왕동 2307-3,어린이공원,1697,체육시설물. 농구대,조합놀이대. 그네,"","","",1993-12-30,경기도 시흥시청,"031-310-3864","2022-07-11",,37.3536530000,126.7430340000
경기도,화성시,청계동,"41590130",생활편의형SOC,CVNTL,도시공원,도담공원(소6호),CVNTL_22_41590_03559,,경기도 화성시 동탄청계로 303-14,경기도 화성시 청계동 510-665,소공원,7326,"","",등의자 등,"","",2010-07-07,경기도 화성시청 공원관리과,"031-5189-6626","2022-07-11",,37.2019800000,127.1185100000
경기도,양평군,양평읍,"41830250",생활편의형SOC,CVNTL,도시공원,양근문화공원(16호),CVNTL_22_41830_02360,,"",경기도 양평군 양평읍 공흥리 산6-1,문화공원,4400,"","","","","",2014-05-26,경기도 양평군청,"031-770-2358","2022-07-11",,37.4978640000,127.4938500000
경기도,화성시,봉담읍,"41590253",생활편의형SOC,CVNTL,도시공원,피아노숲공원(1호),CVNTL_22_41590_03605,,경기도 화성시 봉담읍 동화길 61,경기도 화성시 봉담읍 동화리 592,어린이공원,2114,"","",조합놀이대 등,"","",2002-12-30,경기도 화성시청 공원관리과,"031-5189-6626","2022-07-11",,37.2181600000,126.9562760000
경기도,포천시,영중면,"41650360",생활편의형SOC,CVNTL,도시공원,영중공원,CVNTL_22_41650_03483,,"",경기도 포천시 영중면 양문리 산19-2,근린공원,110772,"","","","","",2000-02-08,경기도 포천시청 생태공원과,"031-538-2358","2022-07-11",,38.0075760000,127.2503100000
경기도,김포시,운양동,"41570103",생활편의형SOC,CVNTL,도시공원,한강소공원14,CVNTL_22_41570_00705,,"",경기도 김포시 장기동 1993-1,소공원,720,체력단련시설,"","","","",2007-10-29,경기도 김포시 공원관리과,"031-980-5627","2022-07-11",,37.6456340000,126.6804000000
경기도,안성시,옥산동,"41550122",생활편의형SOC,CVNTL,도시공원,아양2호근린공원,CVNTL_22_41550_02116,,"",경기도 안성시 옥산동 318,근린공원,35348,"","","","","",2011-12-05,안성시청,"031-678-5392","2022-07-11",,37.0054800000,127.2550900000
경기도,안성시,석정동,"41550118",생활편의형SOC,CVNTL,도시공원,"16호공원",CVNTL_22_41550_02099,,경기도 안성시 비룡6길 13-1,경기도 안성시 석정동 331,어린이공원,2469,"","","","","",1989-12-19,안성시청,"031-678-5392","2022-07-11",,37.0136570000,127.2611200000
경기도,구리시,아천동,"41310106",생활편의형SOC,CVNTL,도시공원,공원(아치울1),CVNTL_22_41310_00436,,"",경기도 구리시 아천동 153-4,어린이공원,3678,"","","","","",2006-01-13,경기도 구리시청,"","2022-07-11",,37.5734670000,127.1201250000
경기도,시흥시,정왕동,"41390132",생활편의형SOC,CVNTL,도시공원,시화 1소공원,CVNTL_22_41390_01774,,"",경기도 시흥시 정왕동 876-131,소공원,2370,체육시설,"","","","",2009-07-03,경기도 시흥시청,"031-310-3864","2022-07-11",,37.3480700000,126.7483900000
경기도,남양주시,다산동,"41360112",생활편의형SOC,CVNTL,도시공원,다산지금 어린이공원 5호,CVNTL_22_41360_00841,,경기도 남양주시 다산지금로146번길 5,경기도 남양주시 다산동 6236-1,어린이공원,4768,"","","","","",,경기도 남양주시청,"031-590-8601","2022-07-11",,37.5992700000,127.1732100000
경기도,양주시,옥정동,"41630114",생활편의형SOC,CVNTL,도시공원,옥정제8근린공원(규율),CVNTL_22_41630_02290,,"",경기도 양주시 옥정동 1042-1,근린공원,19601,"","",정자+벤치+파고라,"","",,경기도 양주시청 공원사업과,"031-8082-7316","2022-07-11",,37.8272700000,127.1002700000
경기도,시흥시,신천동,"41390102",생활편의형SOC,CVNTL,도시공원,현진공원,CVNTL_22_41390_01824,,경기도 시흥시 수인로3335번길 11,경기도 시흥시 신천동 775,어린이공원,1574,"",조합놀이대. 시소. 그네,"","","",1988-06-09,경기도 시흥시청,"031-310-2688","2022-07-11",,37.4384570000,126.7876360000
경기도,양주시,만송동,"41630107",생활편의형SOC,CVNTL,도시공원,고읍제3어린이공원,CVNTL_22_41630_02313,,"",경기도 양주시 만송동 682,어린이공원,2142,"",조합놀이대+흔들놀이,평벤치+파고라+앉음벽,"","",2004-12-29,경기도 양주시청 공원사업과,"031-8082-7311","2022-07-11",,37.8005800000,127.0831800000
경기도,남양주시,화도읍,"41360256",생활편의형SOC,CVNTL,도시공원,녹촌제3호어린이공원,CVNTL_22_41360_00885,,"",경기도 남양주시 화도읍 녹촌리 205-1,어린이공원,3055,"","","","","",,경기도 남양주시청,"031-590-8601","2022-07-11",,37.6512220000,127.2921200000
경기도,오산시,가수동,"41370121",생활편의형SOC,CVNTL,도시공원,세교2 제3호 소공원,CVNTL_22_41370_02451,,"",경기도 오산시 가수동 85-2,소공원,402,"","","","","",2013-12-24,경기도 오산시환경사업소 공원녹지과,"031-8036-6473","2022-07-11",,37.1448020000,127.0515000000
경기도,시흥시,죽율동,"41390133",생활편의형SOC,CVNTL,도시공원,죽율공원,CVNTL_22_41390_01852,,"",경기도 시흥시 죽율동 755,어린이공원,1806,"","","","","",,경기도 시흥시청,"031-310-3871","2022-07-11",,37.3480530000,126.7621840000
경기도,구리시,토평동,"41310107",생활편의형SOC,CVNTL,도시공원,공원(벌말1),CVNTL_22_41310_00492,,"",경기도 구리시 토평동 286-4,어린이공원,1930,"","","","","",2006-01-13,경기도 구리시청,"","2022-07-11",,37.5851900000,127.1484700000
경기도,수원시 팔달구,화서동,"41115138",생활편의형SOC,CVNTL,도시공원,선재미공원,CVNTL_22_41115_01738,,경기도 수원시 팔달구 수성로157번길 27-18,경기도 수원시 팔달구 화서동 678-1,어린이공원,1775.3,"",조합놀이대1,노인정1,"","",,경기도 수원시 팔달구 녹지공원과,"031-228-7043","2022-07-11",,37.2875140000,126.9890100000
경기도,수원시 팔달구,화서동,"41115138",생활편의형SOC,CVNTL,도시공원,양지말공원,CVNTL_22_41115_01724,,경기도 수원시 팔달구 팔달로 151,경기도 수원시 팔달구 화서동 702,어린이공원,3000.4,시소,조합놀이대1,"","",광장,,경기도 수원시 팔달구 녹지공원과,"031-228-7043","2022-07-11",,37.2859540000,126.9847260000
경기도,수원시 팔달구,화서동,"41115138",생활편의형SOC,CVNTL,도시공원,황새말공원,CVNTL_22_41115_01725,,경기도 수원시 팔달구 일월로22번길 23,경기도 수원시 팔달구 화서동 717,근린공원,10242.3,"",생태놀이터,"","",광장,,경기도 수원시 팔달구 녹지공원과,"031-228-7043","2022-07-11",,37.2862800000,126.9811500000
경기도,수원시 팔달구,화서동,"41115138",생활편의형SOC,CVNTL,도시공원,서호꽃뫼공원,CVNTL_22_41115_01726,,경기도 수원시 팔달구 수성로 120,경기도 수원시 팔달구 화서동 410-6,근린공원,56450.2,농구장2+배드민턴장1,포시즌가든+텃밭,화장실1,"","",,경기도 수원시 팔달구 녹지공원과,"031-228-7043","2022-07-11",,37.2843500000,126.9873200000
경기도,수원시 팔달구,화서동,"41115138",생활편의형SOC,CVNTL,도시공원,산마루공원,CVNTL_22_41115_01727,,"",경기도 수원시 팔달구 화서동 688-4,어린이공원,4595.8,"",조합놀이대1,"","",광장,,경기도 수원시 팔달구 녹지공원과,"031-228-7043","2022-07-11",,37.2860400000,126.9876560000
경기도,고양시 일산서구,탄현동,"41287103",생활편의형SOC,CVNTL,도시공원,탄현 1(황룡)공원,CVNTL_22_41287_00250,,경기도 고양시 일산서구 탄현로 73,경기도 고양시 일산서구 탄현동 1475,어린이공원,1500,체력단련시설,조합놀이대+그네+시소,화장실,"","",1990-12-19,경기도 고양시 일산서구청,"031-8075-7266","2022-07-11",,37.6976600000,126.7673340000
경기도,고양시 일산서구,탄현동,"41287103",생활편의형SOC,CVNTL,도시공원,탄현 3(현중)공원,CVNTL_22_41287_00251,,경기도 고양시 일산서구 현중로 56,경기도 고양시 일산서구 탄현동 1478,어린이공원,1500,체력단련시설,조합놀이대+그네+흔들놀이대,화장실,"","",1990-12-19,경기도 고양시 일산서구청,"031-8075-7266","2022-07-11",,37.6955870000,126.7675250000
경기도,고양시 일산서구,탄현동,"41287103",생활편의형SOC,CVNTL,도시공원,탄현 4(숯고개)공원,CVNTL_22_41287_00252,,경기도 고양시 일산서구 홀트로 16-2,경기도 고양시 일산서구 탄현동 1486,어린이공원,1500,체력단련시설,조합놀이대+흔들놀이대+놀이집,화장실,"","",1990-12-19,경기도 고양시 일산서구청,"031-8075-7266","2022-07-11",,37.6939800000,126.7663200000
경기도,고양시 일산서구,탄현동,"41287103",생활편의형SOC,CVNTL,도시공원,탄현 5(탄현)공원,CVNTL_22_41287_00253,,경기도 고양시 일산서구 현중로36번길 20-2,경기도 고양시 일산서구 탄현동 1495,어린이공원,1501,체력단련시설,조합놀이대+그네+흔들놀이대,화장실,"","",1990-12-19,경기도 고양시 일산서구청,"031-8075-7266","2022-07-11",,37.6941000000,126.7689200000
경기도,고양시 일산서구,탄현동,"41287103",생활편의형SOC,CVNTL,도시공원,탄현 6(탄중)공원,CVNTL_22_41287_00254,,경기도 고양시 일산서구 탄중로233번길 16,경기도 고양시 일산서구 탄현동 1501,어린이공원,1494,체력단련시설,조합놀이대+그네+흔들놀이대+철봉,화장실,"","",1990-12-19,경기도 고양시 일산서구청,"031-8075-7266","2022-07-11",,37.6942300000,126.7709800000
경기도,고양시 일산서구,탄현동,"41287103",생활편의형SOC,CVNTL,도시공원,탄현주상복합(숯고개향나무)공원,CVNTL_22_41287_00212,,"",경기도 고양시 일산서구 탄현동 1639,어린이공원,4733,체력단련시설,조합놀이대+흔들놀이대+놀이집,"","","",2009-01-16,경기도 고양시 일산서구청,"031-8075-7266","2022-07-11",,37.6931400000,126.7631900000
경기도,평택시,칠괴동,"41220104",생활편의형SOC,CVNTL,도시공원,칠괴 근린공원,CVNTL_22_41220_02915,,"",경기도 평택시 칠괴동 579-1,근린공원,9895.7,"2단 매달리기+다리올리기+링 매달리기+철봉+축구대+축구장","",자전거거치대+화장실,"",집수정,1996-12-17,경기도 평택시청,"031-8024-4247","2022-07-11",,37.0321800000,127.0883100000
경기도,평택시,이충동,"41220109",생활편의형SOC,CVNTL,도시공원,장당공원,CVNTL_22_41220_02919,,"",경기도 평택시 이충동 615,근린공원,10254.6,다리뻗치기+마라톤운동기+양팔줄당기기+온몸허리돌리기+윗몸일으키기+지압보도+하늘걷기,고무칩포장+그네+시소+조합놀이대,음수전+자전거거치대+화장실,관람대,비만탈출코끼리 조형물+수목보호대+집수정+측량기준점+트랜치+화장실 경계벽,2002-10-25,경기도 평택시청,"031-8024-4247","2022-07-11",,37.0520970000,127.0714900000
경기도,평택시,이충동,"41220109",생활편의형SOC,CVNTL,도시공원,이충 어린이공원,CVNTL_22_41220_02917,,경기도 평택시 이충로 93-5,경기도 평택시 이충동 590,어린이공원,3159.4,옆파도타기+온몸근육풀기+하늘걷기,고무칩포장+그네+조합놀이대,음수대+음수전,"",PE 빗물받이+우수관+집수정+트랜치,1993-06-28,경기도 평택시청,"031-8024-4247","2022-07-11",,37.0636330000,127.0668700000
경기도,평택시,이충동,"41220109",생활편의형SOC,CVNTL,도시공원,충의 근린공원,CVNTL_22_41220_02918,,"",경기도 평택시 이충동 692,근린공원,14181.6,네트걸이대+다리뻗치기+등허리지압기+마라톤운동기+배드민턴장+옆파도타기+윗몸일으키기+지압길 포장+하늘걷기,고무매트포장+조합놀이대,화장실,"",U형측구+수목보호덮개+옹벽+집수정+충의각 기념비+충의각 위령비+토사방지용 원주목경계+트랜치,2002-05-29,경기도 평택시청,"031-8024-4247","2022-07-11",,37.0594860000,127.0711300000
경기도,평택시,이충동,"41220109",생활편의형SOC,CVNTL,도시공원,반지산(돌산) 근린공원,CVNTL_22_41220_02921,,"",경기도 평택시 이충동 662,근린공원,25136.2,다리뻗치기+등허리지압기+배드민턴장+배드민턴지주대+온몸근육풀기+온몸허리돌리기+지압보도,고무매트포장+조합놀이대,화장실,"",PE 빗물받이+U형측구+맨홀+맨홀뚜껑+배수관+배수로+산석경계벽+상수관+오수관+옹벽+자연석쌓기+집수정+플륨관,2002-05-29,경기도 평택시청,"031-8024-4247","2022-07-11",,37.0587960000,127.0648200000
경기도,평택시,이충동,"41220109",생활편의형SOC,CVNTL,도시공원,부락산분수 근린공원,CVNTL_22_41220_02922,,"",경기도 평택시 이충동 279-1,근린공원,161070,농구대+등허리지압기+마라톤운동기+옆파도타기+온몸역기올리기+온몸근육풀기+온몸허리돌리기+윗몸일으키기+철봉+평행봉+온몸역기내리기+하늘걷기,"",음수전+화장실,"",소화전+시계탑+옹벽+집수정+컨츄리매너 옹벽+트랜치,2010-12-30,경기도 평택시청,"031-8024-4247","2022-07-11",,37.0650700000,127.0676650000
경기도,평택시,이충동,"41220109",생활편의형SOC,CVNTL,도시공원,광말 어린이공원,CVNTL_22_41220_02923,,"",경기도 평택시 이충동 631,어린이공원,1536.2,다리뻗치기+등허리지압기+옆파도타기+온몸근육풀기+온몸역기내리기+온몸허리돌리기,고무매트포장+조합놀이대,"","",집수정,2002-05-29,경기도 평택시청,"031-8024-4247","2022-07-11",,37.0577900000,127.0629960000
경기도,평택시,이충동,"41220109",생활편의형SOC,CVNTL,도시공원,돌우물 어린이공원,CVNTL_22_41220_02924,,"",경기도 평택시 이충동 676,어린이공원,4039.3,다리뻗치기+다목적 운동장+등허리지압기+마라톤운동기+하늘걷기,고무칩포장+시소+조합놀이대,"","",운동시설보호대+집수정,2002-05-29,경기도 평택시청,"031-8024-4247","2022-07-11",,37.0585600000,127.0691700000
경기도,평택시,이충동,"41220109",생활편의형SOC,CVNTL,도시공원,동령 어린이공원,CVNTL_22_41220_02925,,"",경기도 평택시 이충동 687,어린이공원,1997.2,옆파도타기+윗몸일으키기+하늘걷기,고무매트포장+고무칩포장+그네+조합놀이대,"","",수목보호대+운동시설보호대+집수정+트랜치,2002-05-29,경기도 평택시청,"031-8024-4247","2022-07-11",,37.0609660000,127.0692000000
경기도,안산시 단원구,초지동,"41273107",생활편의형SOC,CVNTL,도시공원,원포공원,CVNTL_22_41273_01884,,경기도 안산시 단원구 원포공원로 5,경기도 안산시 단원구 초지동 746,근린공원,106920,운동기구2종,"","","","",1995-08-11,경기도 안산시청,"031-481-2468","2022-07-11",,37.3011600000,126.8083700000
경기도,안산시 단원구,초지동,"41273107",생활편의형SOC,CVNTL,도시공원,초지상소공원,CVNTL_22_41273_01878,,경기도 안산시 단원구 초지시장로 36-21,경기도 안산시 단원구 초지동 606-5,소공원,3968,"","","","","산책로, 진입광장, 휴게소",2013-12-24,경기도 안산시청,"031-481-6417","2022-07-11",,37.3237340000,126.8079450000
경기도,안산시 단원구,초지동,"41273107",생활편의형SOC,CVNTL,도시공원,소리공원,CVNTL_22_41273_01879,,경기도 안산시 단원구 원당길 12-12,경기도 안산시 단원구 초지동 682,어린이공원,1755,"","조합놀이대, 시소, 그네","","","",2004-01-01,경기도 안산시청,"031-481-6412","2022-07-11",,37.3143420000,126.8139900000
경기도,안산시 단원구,초지동,"41273107",생활편의형SOC,CVNTL,도시공원,초지상소공원2,CVNTL_22_41273_01883,,경기도 안산시 단원구 원초로 96,경기도 안산시 단원구 초지동 606-3,소공원,1218,"","","","","산책로, 진입광장, 휴게소",2011-03-28,경기도 안산시청,"031-481-6417","2022-07-11",,37.3249050000,126.8079760000
경기도,안산시 단원구,초지동,"41273107",생활편의형SOC,CVNTL,도시공원,풍경공원,CVNTL_22_41273_01885,,경기도 안산시 단원구 초지2로 64,경기도 안산시 단원구 초지동 740,근린공원,17831,"게이트볼장, 운동기구 2종","","주차장,화장실","","",1991-10-11,경기도 안산시청,"031-481-2468","2022-07-11",,37.3059540000,126.8158100000
경기도,안산시 단원구,초지동,"41273107",생활편의형SOC,CVNTL,도시공원,둔배미공원,CVNTL_22_41273_01886,,경기도 안산시 단원구 광덕2로 55,경기도 안산시 단원구 초지동 723-1,근린공원,44535,"풋살구장,체력단련장,체육관 (게이트볼삭제요청)","놀이터, 조합놀이대","주차장,화장실","","",1998-07-03,경기도 안산시청,"031-481-2468","2022-07-11",,37.3126340000,126.8167900000
경기도,안산시 단원구,초지동,"41273107",생활편의형SOC,CVNTL,도시공원,파도공원,CVNTL_22_41273_01887,,"",경기도 안산시 단원구 초지동 707-1,어린이공원,1971.5,농구대 1,"조합놀이대, 시소, 그네","","","",2004-01-01,경기도 안산시청,"031-481-6412","2022-07-11",,37.3143420000,126.8175350000
경기도,안산시 단원구,초지동,"41273107",생활편의형SOC,CVNTL,도시공원,바람공원,CVNTL_22_41273_01888,,경기도 안산시 단원구 초지시장로 36-28,경기도 안산시 단원구 초지동 607-1,어린이공원,2157.9,농구대 2,"조합놀이대, 시소, 그네","","","",1996-01-01,경기도 안산시청,"031-481-6412","2022-07-11",,37.3242600000,126.8075600000
경기도,안산시 단원구,초지동,"41273107",생활편의형SOC,CVNTL,도시공원,초지1소공원,CVNTL_22_41273_01877,,경기도 안산시 단원구 동산로 209,경기도 안산시 단원구 초지동 595-3,소공원,4864,"","","","","산책로, 진입광장, 휴게소",2013-12-24,경기도 안산시청,"031-481-6417","2022-07-11",,37.3208900000,126.8081800000
경기도,고양시 일산동구,백석동,"41285106",생활편의형SOC,CVNTL,도시공원,용천공원,CVNTL_22_41285_00189,,경기도 고양시 일산동구 백석로 16-3,경기도 고양시 일산동구 백석동 1348,어린이공원,4255,체력단련시설+운동장(농구대),조합놀이대+그네+흔들놀이기구(흔들말+시소),화장실,"","",1990-03-31,경기도 고양시 일산동구청,"031-8075-6263","2022-07-11",,37.6422500000,126.7831300000
경기도,고양시 일산동구,백석동,"41285106",생활편의형SOC,CVNTL,도시공원,검바골공원,CVNTL_22_41285_00132,,경기도 고양시 일산동구 강송로74번길 53-7,경기도 고양시 일산동구 백석동 1156,어린이공원,3595,체력단련시설+운동장(농구대),조합놀이대+그네+흔들놀이기구(시소),화장실,"","",1990-03-31,경기도 고양시 일산동구청,"031-8075-6263","2022-07-11",,37.6486200000,126.7911000000
경기도,고양시 일산동구,백석동,"41285106",생활편의형SOC,CVNTL,도시공원,알미공원,CVNTL_22_41285_00133,,경기도 고양시 일산동구 중앙로 1087-2,경기도 고양시 일산동구 백석동 1350,근린공원,15507,체력단련시설,"",화장실,야외음악당,"",1991-06-29,경기도 고양시 푸른도시사업소,"031-8075-4337","2022-07-11",,37.6455000000,126.7839400000
경기도,고양시 일산동구,백석동,"41285106",생활편의형SOC,CVNTL,도시공원,청천공원,CVNTL_22_41285_00134,,경기도 고양시 일산동구 백석로 169-3,경기도 고양시 일산동구 백석동 1137,어린이공원,6299,체력단련시설+운동장(농구대),조합놀이대+그네+흔들놀이기구(흔들말+시소),화장실,"","",1990-03-31,경기도 고양시 일산동구청,"031-8075-6263","2022-07-11",,37.6525100000,126.7944640000
경기도,고양시 일산동구,백석동,"41285106",생활편의형SOC,CVNTL,도시공원,백송공원,CVNTL_22_41285_00135,,경기도 고양시 일산동구 강송로 120-3,경기도 고양시 일산동구 백석동 1189,어린이공원,5753,체력단련시설,조합놀이대+그네+흔들놀이기구(흔들말+시소)+회전놀이기구,화장실,"","",1990-03-31,경기도 고양시 일산동구청,"031-8075-6263","2022-07-11",,37.6507450000,126.7891540000
경기도,고양시 일산동구,백석동,"41285106",생활편의형SOC,CVNTL,도시공원,간이공원,CVNTL_22_41285_00188,,경기도 고양시 일산동구 백석로72번길 31-12,경기도 고양시 일산동구 백석동 1269,어린이공원,3341,체력단련시설,조합놀이대+그네+흔들놀이기구(시소+흔들말),"","","",1990-03-31,경기도 고양시 일산동구청,"031-8075-6263","2022-07-11",,37.6461560000,126.7880000000
경기도,고양시 일산동구,백석동,"41285106",생활편의형SOC,CVNTL,도시공원,향나무(알미)공원,CVNTL_22_41285_00190,,경기도 고양시 일산동구 호수로430번길 29-14,경기도 고양시 일산동구 백석동 1437,어린이공원,3576,체력단련시설,조합놀이대+그네+흔들놀이기구(흔들말),"","","",1990-03-31,경기도 고양시 일산동구청,"031-8075-6263","2022-07-11",,37.6445770000,126.7801200000
경기도,고양시 일산동구,백석동,"41285106",생활편의형SOC,CVNTL,도시공원,안산공원,CVNTL_22_41285_00191,,경기도 고양시 일산동구 백석로 57-2,경기도 고양시 일산동구 백석동 1195,문화공원,8437,체력단련시설,"",화장실,"","",1991-06-29,경기도 고양시 푸른도시사업소,"031-8075-4337","2022-07-11",,37.6461400000,126.7847100000
경기도,고양시 덕양구,주교동,"41281101",생활편의형SOC,CVNTL,도시공원,마상공원,CVNTL_22_41281_00102,,경기도 고양시 덕양구 원당로69번길 46,경기도 고양시 덕양구 주교동 313-16,근린공원,106378,국궁장+다목적운동장+농구장+실내배드민턴장+게이트볼장+체력단련시설,"","","","",1971-09-27,경기도 고양시 푸른도시사업소,"031-8075-4327","2022-07-11",,37.6604100000,126.8336700000
경기도,고양시 덕양구,주교동,"41281101",생활편의형SOC,CVNTL,도시공원,주교 3공원,CVNTL_22_41281_00103,,경기도 고양시 덕양구 마상로140번길 38,경기도 고양시 덕양구 주교동 619-3,어린이공원,1492,"",조합놀이대,"","","",1981-05-13,경기도 고양시 덕양구청,"031-8075-5267","2022-07-11",,37.6580960000,126.8366550000
경기도,고양시 덕양구,주교동,"41281101",생활편의형SOC,CVNTL,도시공원,배다리공원,CVNTL_22_41281_00104,,경기도 고양시 덕양구 마상로 51,경기도 고양시 덕양구 주교동 296,어린이공원,4514,풋살구장,조합놀이대,화장실,"","",2013-03-15,경기도 고양시 덕양구청,"031-8075-5267","2022-07-11",,37.6625330000,126.8294200000
경기도,평택시,가재동,"41220107",생활편의형SOC,CVNTL,도시공원,제2호 수변공원(가재지구 129호),CVNTL_22_41220_03397,,"",경기도 평택시 가재동 479-1,수변공원,6560,"","","","","",2011-11-25,경기도 평택시청,"031-8024-4247","2022-07-11",,37.0423360000,127.0776700000
경기도,평택시,가재동,"41220107",생활편의형SOC,CVNTL,도시공원,제2호 체육공원(브레인시티),CVNTL_22_41220_03398,,"",경기도 평택시 가재동 128,체육공원,15574,"","","","","",2010-03-15,경기도 평택시청,"031-8024-4247","2022-07-11",,37.0386300000,127.0872500000
경기도,평택시,가재동,"41220107",생활편의형SOC,CVNTL,도시공원,제1호 수변공원(가재지구 128호),CVNTL_22_41220_03396,,"",경기도 평택시 가재동 479-1,수변공원,1100,"","","","","",2011-11-25,경기도 평택시청,"031-8024-4247","2022-07-11",,37.0423360000,127.0776700000
경기도,평택시,가재동,"41220107",생활편의형SOC,CVNTL,도시공원,제1호 근린공원(가재지구),CVNTL_22_41220_02926,,경기도 평택시 가재길 52,경기도 평택시 가재동 436-1,근린공원,25600,"","","","","",2011-11-25,경기도 평택시청,"031-8024-4247","2022-07-11",,37.0442500000,127.0752000000
경기도,평택시,가재동,"41220107",생활편의형SOC,CVNTL,도시공원,제2호 근린공원(가재지구),CVNTL_22_41220_02927,,경기도 평택시 막곡길 45-14,경기도 평택시 가재동 산 58-1,근린공원,16340,"","","","","",2011-11-25,경기도 평택시청,"031-8024-4247","2022-07-11",,37.0422940000,127.0839500000
경기도,평택시,가재동,"41220107",생활편의형SOC,CVNTL,도시공원,제3호 어린이공원 제132호(가재지구),CVNTL_22_41220_03399,,"",경기도 평택시 가재동 산88-2,어린이공원,3240,"","","","","",2011-11-25,경기도 평택시청,"031-8024-4247","2022-07-11",,37.0409600000,127.0782850000
경기도,평택시,가재동,"41220107",생활편의형SOC,CVNTL,도시공원,제2호 어린이공원 제131호(가재지구),CVNTL_22_41220_03401,,"",경기도 평택시 가재동 534,어린이공원,2590,"","","","","",2011-11-25,경기도 평택시청,"031-8024-4247","2022-07-11",,37.0428470000,127.0740700000
경기도,평택시,오성면,"41220340",생활편의형SOC,CVNTL,도시공원,길음2리 소공원(길음지구),CVNTL_22_41220_02946,,"",경기도 평택시 오성면 길음리 320-3,소공원,2554,등허리지압기+온몸근육풀기+온몸허리돌리기+하늘걷기,고무매트포장+조합놀이대+흔들놀이,음수전+주차장+화장실,"",배수로+집수정,2012-06-14,경기도 평택시청,"031-8024-4247","2022-07-11",,36.9851570000,126.9701840000
경기도,평택시,오성면,"41220340",생활편의형SOC,CVNTL,도시공원,숙성3리 마을쉼터공원,CVNTL_22_41220_02920,,"",경기도 평택시 오성면 숙성리 753-6,기타,1200,마라톤운동기+온몸근육풀기+온몸역기내리기+온몸허리돌리기+족구대+족구장+하늘걷기,모래포장,"","",맹암거+배수로+우수관+자연석쌓기+집수정+측구수로관+흉관,,경기도 평택시청,"031-8024-4247","2022-07-11",,36.9946000000,126.9731800000
경기도,평택시,오성면,"41220340",생활편의형SOC,CVNTL,도시공원,당거1리 마을쉼터공원,CVNTL_22_41220_02933,,"",경기도 평택시 오성면 당거리 392-1,기타,987,고무매트포장+등허리지압기+온몸근육풀기+온몸허리돌리기+지압보도+하늘걷기,고무매트포장+조합놀이대+흔들놀이,음수전,"",배수로+상수관+수목보호홀덮개+우수관+제수변+집수정+트랜치,,경기도 평택시청,"031-8024-4247","2022-07-11",,36.9877050000,126.9760900000
경기도,평택시,오성면,"41220340",생활편의형SOC,CVNTL,도시공원,숙성1리 마을쉼터공원,CVNTL_22_41220_02935,,"",경기도 평택시 오성면 숙성리 164,기타,582,어깨근육풀기+온몸역기내리기+온몸허리돌리기,"",음수전,"",빗물받이+상수관+수목보호대+우수관+집수정,,경기도 평택시청,"031-8024-4247","2022-07-11",,37.0091740000,126.9818800000
경기도,평택시,오성면,"41220340",생활편의형SOC,CVNTL,도시공원,숙성2리 마을쉼터공원,CVNTL_22_41220_02936,,"",경기도 평택시 오성면 숙성리 622-24,기타,1243,다리뻗치기+등허리펴기+배드민턴대+옆파도타기+온몸허리돌리기+족구장+하늘걷기,고무칩포장+그네+시소,음수전,"",배수관+상수관+자연석쌓기+제수변+집수정,,경기도 평택시청,"031-8024-4247","2022-07-11",,37.0026470000,126.9764940000
경기도,평택시,오성면,"41220340",생활편의형SOC,CVNTL,도시공원,숙성5리 마을쉼터공원,CVNTL_22_41220_02937,,"",경기도 평택시 오성면 숙성리 149-4,기타,769,발바닥지압걷기+온몸근육풀기+온몸허리돌리기+하늘걷기,그네+그네보호대+모래포장,음수전,"",맹암거+상수관+우수관+집수정+퇴수관,,경기도 평택시청,"031-8024-4247","2022-07-11",,37.0082130000,126.9823300000
경기도,평택시,오성면,"41220340",생활편의형SOC,CVNTL,도시공원,신4리 마을쉼터공원,CVNTL_22_41220_02940,,"",경기도 평택시 오성면 창내리 118-1,기타,1652,고무칩포장+등허리지압기+배드민턴장+배드민턴지주대+온몸근육풀기+온몸역기올리기+온몸허리돌리기+윗몸일으키기+지압보도+하늘걷기,"",화장실,"",배수로+버스정류장 쉼터+수목보호덮개+우수관+집수정+측구수로,,경기도 평택시청,"031-8024-4247","2022-07-11",,37.0014530000,127.0196700000
경기도,평택시,오성면,"41220340",생활편의형SOC,CVNTL,도시공원,창내1리 마을쉼터공원,CVNTL_22_41220_02942,,"",경기도 평택시 오성면 창내리 108-14,기타,906,"3단 철봉+거꾸로매달리기+등허리지압기+발바닥지압기+배드민턴장+배드민턴지주대+온몸노젓기+온몸허리돌리기",고무칩포장+조합놀이대,음수전,"",수목보호덮개+집수정+트랜치,,경기도 평택시청,"031-8024-4247","2022-07-11",,36.9953100000,127.0232400000
경기도,평택시,오성면,"41220340",생활편의형SOC,CVNTL,도시공원,창내2리 마을쉼터공원,CVNTL_22_41220_02943,,"",경기도 평택시 오성면 창내리 21-63,기타,1200,등허리지압기+옆파도타기+온몸근육풀기+온몸허리돌리기+족구대+족구장+하늘걷기,모래포장+조합놀이대+흔들놀이,음수전+화장실,"",배수로+집수정,,경기도 평택시청,"031-8024-4247","2022-07-11",,36.9881900000,127.0209050000
경기도,평택시,오성면,"41220340",생활편의형SOC,CVNTL,도시공원,창내3리 마을쉼터공원,CVNTL_22_41220_02944,,"",경기도 평택시 오성면 창내리 40-6,기타,1979,"",그네+그네보호대+모래포장+시소+흔들놀이,"","",우수관+집수정,,경기도 평택시청,"031-8024-4247","2022-07-11",,36.9965630000,127.0122100000
경기도,평택시,오성면,"41220340",생활편의형SOC,CVNTL,도시공원,교포1리 마을쉼터공원,CVNTL_22_41220_02930,,"",경기도 평택시 오성면 교포리 52-6,기타,1000,고무칩포장+어깨근육풀기+온몸허리돌리기+족구장+족구장네트대+하늘걷기,"",음수전,"",맹암거(간선)+맹암거(지선)+배수로+수목보호판+우수관+집수정,,경기도 평택시청,"031-8024-4247","2022-07-11",,37.0059000000,127.0021400000
경기도,평택시,오성면,"41220340",생활편의형SOC,CVNTL,도시공원,창내4리 마을쉼터공원,CVNTL_22_41220_02945,,"",경기도 평택시 오성면 창내리 94,기타,2353,등허리지압기+발바닥지압-손잡이+발바닥지압걷기+온몸근육풀기+온몸허리돌리기+족구장+족구지주+하늘걷기,모래포장+조합놀이대,음수전,"",빗물받이+상수관+수목보호판+우수관+집수정+측구수로,,경기도 평택시청,"031-8024-4247","2022-07-11",,36.9890060000,127.0279850000
경기도,평택시,오성면,"41220340",생활편의형SOC,CVNTL,도시공원,길음1리 마을쉼터공원,CVNTL_22_41220_03445,,경기도 평택시 오성면 길음1길 57-4,경기도 평택시 오성면 길음리 81-1,기타,1147,등허리지압기+어깨근육풀기+온몸근육풀기+온몸허리돌리기+하늘걷기,흔들놀이,"","",배수로+벤치플륨관 +수목보호덮개+스틸그레이팅+원심력수로관+집수정+트랜치+흉관,,경기도 평택시청,"031-8024-4247","2022-07-11",,36.9889400000,126.9638440000
경기도,평택시,오성면,"41220340",생활편의형SOC,CVNTL,도시공원,당거3리 마을쉼터공원,CVNTL_22_41220_03446,,경기도 평택시 오성면 당거3길 48-2,경기도 평택시 오성면 당거리 9-2,기타,1140,고무매트포장+농구대+농구코트+등허리지압기+발바닥지압걷기+온몸근육풀기+온몸허리돌리기+하늘걷기,고무매트포장+시소+조합놀이대+흔들놀이,음수전,"",수목보호대+트랜치,,경기도 평택시청,"031-8024-4247","2022-07-11",,36.9893400000,127.0065800000
경기도,평택시,오성면,"41220340",생활편의형SOC,CVNTL,도시공원,오성 근린공원(오성산단),CVNTL_22_41220_02947,,"",경기도 평택시 오성면 양교리 1095,근린공원,10019.4,농구장+풋살장+등허리지압기+마라톤운동기+배드민턴장+배드민턴지주대+벽걸이농구대+옆파도타기+온몸근육풀기+온몸역기올리기+풋살골대+하늘걷기,"",화장실,"",디자인집수정+빗물받이+우수관+자연석쌓기+집수정,2007-01-02,경기도 평택시청,"031-8024-4247","2022-07-11",,37.0246660000,126.9489400000
경기도,평택시,오성면,"41220340",생활편의형SOC,CVNTL,도시공원,길음3리 소공원(길음지구),CVNTL_22_41220_02928,,"",경기도 평택시 오성면 길음리 293-5,소공원,1450,농구대+등허리지압기+온몸근육풀기+온몸허리돌리기+원형발바닥지압걷기+정구대+정구장,고무칩포장+조합놀이대,음수전+주차장+화장실,"",정구연습용옹벽+집수정+트랜치,2012-06-14,경기도 평택시청,"031-8024-4247","2022-07-11",,36.9848440000,126.9693200000
경기도,평택시,오성면,"41220340",생활편의형SOC,CVNTL,도시공원,소공원 1호(양교지구),CVNTL_22_41220_02929,,"",경기도 평택시 오성면 양교리 915-47,소공원,9308,"","","","","",2011-04-05,경기도 평택시청,"031-8024-4247","2022-07-11",,37.0212020000,126.9498300000
경기도,평택시,오성면,"41220340",생활편의형SOC,CVNTL,도시공원,평택 도시농업공원,CVNTL_22_41220_02948,,"",경기도 평택시 오성면 숙성리 1033,도시농업공원,34525,"","","","","",2015-06-30,경기도 평택시청,"031-8024-4247","2022-07-11",,37.0142140000,126.9844100000
경기도,평택시,오성면,"41220340",생활편의형SOC,CVNTL,도시공원,당거2리 마을쉼터공원,CVNTL_22_41220_02934,,"",경기도 평택시 오성면 숙성리 936-108,기타,2000,등허리지압기+온몸근육풀기+온몸역기내리기+온몸허리돌리기+하늘걷기,고무칩포장+조합놀이대,"","",수목보호판+우수관+집수정,,경기도 평택시청,"031-8024-4247","2022-07-11",,36.9946000000,126.9802300000
경기도,평택시,오성면,"41220340",생활편의형SOC,CVNTL,도시공원,교포3리 마을쉼터공원,CVNTL_22_41220_02932,,"",경기도 평택시 오성면 교포리 108-17,기타,1200,마라톤운동기+온몸근육풀기+온몸허리돌리기,"","","",기존 배수관(천공)+맹암거+배수관+원형수로관+집수정,,경기도 평택시청,"031-8024-4247","2022-07-11",,36.9987260000,126.9983400000
경기도,평택시,고덕동,"41220128",생활편의형SOC,CVNTL,도시공원,"35호 어린이공원(여염리)",CVNTL_22_41220_02996,,"",경기도 평택시 고덕면 여염리 산66,어린이공원,1712,"","","","","",2015-04-03,경기도 평택시청,"031-8024-4247","2022-07-11",,37.0357500000,127.0439300000
경기도,평택시,고덕동,"41220128",생활편의형SOC,CVNTL,도시공원,"12호 근린공원(고덕국제화지구)",CVNTL_22_41220_02999,,"",경기도 평택시 고덕면 좌교리 353,근린공원,0,"","","","","",2010-01-29,경기도 평택시청,"031-8024-4247","2022-07-11",,37.0415880000,127.0207800000
경기도,평택시,고덕동,"41220128",생활편의형SOC,CVNTL,도시공원,"37호 어린이공원(장당동)",CVNTL_22_41220_03132,,"",경기도 평택시 장당동 531,어린이공원,2134,"","","","","",2015-04-03,경기도 평택시청,"031-8024-4247","2022-07-11",,37.0464440000,127.0502100000
경기도,평택시,고덕동,"41220128",생활편의형SOC,CVNTL,도시공원,임주 소공원(고덕일반산업단지 소공원2),CVNTL_22_41220_02963,,"",경기도 평택시 고덕면 여염리 1666,소공원,2238.5,생활체육시설 A+생활체육시설 E+생활체육시설 F,"",자전거보관대,"",배수관+벤치플륨관+스틸그레이팅+시설물표찰+집수정A,2010-11-16,경기도 평택시청,"031-8024-4247","2022-07-11",,37.0370520000,127.0479660000
경기도,평택시,고덕동,"41220128",생활편의형SOC,CVNTL,도시공원,"39호 어린이공원(서정동)",CVNTL_22_41220_02974,,"",경기도 평택시 고덕동 산283,어린이공원,1509,"","","","","",2015-04-03,경기도 평택시청,"031-8024-4247","2022-07-11",,37.0616400000,127.0432740000
경기도,평택시,고덕동,"41220128",생활편의형SOC,CVNTL,도시공원,수변공원 9호(고덕국제화지구 여염리),CVNTL_22_41220_02960,,"",경기도 평택시 고덕면 여염리 315,수변공원,11782,"","","","","",2013-01-04,경기도 평택시청,"031-8024-4247","2022-07-11",,37.0409930000,127.0448500000
경기도,평택시,고덕동,"41220128",생활편의형SOC,CVNTL,도시공원,수변공원 3호(고덕국제화지구 해창리),CVNTL_22_41220_02954,,"",경기도 평택시 고덕면 해창리 66,수변공원,56051,"","","","","",2013-01-04,경기도 평택시청,"031-8024-4247","2022-07-11",,37.0303540000,127.0317900000
경기도,평택시,고덕동,"41220128",생활편의형SOC,CVNTL,도시공원,수변공원 4호(고덕국제화지구 궁리),CVNTL_22_41220_02955,,"",경기도 평택시 고덕면 궁리 310,수변공원,15746,"","","","","",2013-01-04,경기도 평택시청,"031-8024-4247","2022-07-11",,37.0304220000,127.0338060000
경기도,평택시,고덕동,"41220128",생활편의형SOC,CVNTL,도시공원,"31호 어린이공원(고덕국제화지구 (좌교리)",CVNTL_22_41220_02969,,"",경기도 평택시 고덕면 좌교리 270,어린이공원,4674,"","","","","",2015-04-03,경기도 평택시청,"031-8024-4247","2022-07-11",,37.0406800000,127.0295400000
경기도,평택시,고덕동,"41220128",생활편의형SOC,CVNTL,도시공원,"32호 어린이공원(고덕국제화지구  해창리)",CVNTL_22_41220_02970,,"",경기도 평택시 고덕면 해창리 15-2,어린이공원,2280,"","","","","",2015-04-03,경기도 평택시청,"031-8024-4247","2022-07-11",,37.0314450000,127.0266100000
경기도,평택시,고덕동,"41220128",생활편의형SOC,CVNTL,도시공원,여염 근린공원(고덕일반산업단지),CVNTL_22_41220_02973,,"",경기도 평택시 고덕면 여염리 1650,근린공원,56087.7,생활체육시설 A(온몸돌리기)+생활체육시설 B(마라톤운동)+생활체육시설 C(온몸노젖기)+생활체육시설 D(윗몸일으키기)+생활체육시설 E(공중걷기)+생활체육시설 F(옆파도타기),"",램프+램프뒤 자갈채움+화장실,"",PE빗물받이+경관옹벽+배수관(PE이중벽관)+상수관로+수로관덮개 C+시설물표찰+식수대 화산석포설+오수관로+오수맨홀(원형)+자연석쌓기 A+집수정A+집수정B+측구A+측구수로관+측구수로관A+측구수로관B,2010-11-16,경기도 평택시청,"031-8024-4247","2022-07-11",,37.0308300000,127.0551900000
경기도,평택시,고덕동,"41220128",생활편의형SOC,CVNTL,도시공원,"2호 근린공원(고덕국제화지구 서정동)",CVNTL_22_41220_02975,,"",경기도 평택시 서정동 608-2,근린공원,186797,"","","","","",2013-01-04,경기도 평택시청,"031-8024-4247","2022-07-11",,37.0721470000,127.0429700000
경기도,평택시,고덕동,"41220128",생활편의형SOC,CVNTL,도시공원,"3호 근린공원(고덕국제화지구 당현리)",CVNTL_22_41220_02976,,"",경기도 평택시 고덕면 당현리 457,근린공원,70920,"","","","","",2013-01-04,경기도 평택시청,"031-8024-4247","2022-07-11",,37.0599670000,127.0344800000
경기도,평택시,고덕동,"41220128",생활편의형SOC,CVNTL,도시공원,"4호 근린공원(고덕국제화지구 두릉리)",CVNTL_22_41220_02977,,"",경기도 평택시 고덕면 두릉리 산32-5,근린공원,23246,"","","","","",2013-01-04,경기도 평택시청,"031-8024-4247","2022-07-11",,37.0588300000,127.0212000000
경기도,평택시,고덕동,"41220128",생활편의형SOC,CVNTL,도시공원,"6호 근린공원(고덕국제화지구 좌교리)",CVNTL_22_41220_02979,,"",경기도 평택시 고덕면 좌교리 433-52,근린공원,59444,"","","","","",2013-01-04,경기도 평택시청,"031-8024-4247","2022-07-11",,37.0468060000,127.0185240000
경기도,평택시,고덕동,"41220128",생활편의형SOC,CVNTL,도시공원,"7호 근린공원(고덕국제화지구 두릉리)",CVNTL_22_41220_02980,,"",경기도 평택시 고덕면 두릉리 576,근린공원,26170,"","","","","",2013-01-04,경기도 평택시청,"031-8024-4247","2022-07-11",,37.0539130000,127.0172900000
경기도,평택시,고덕동,"41220128",생활편의형SOC,CVNTL,도시공원,"8호 근린공원(고덕국제화지구 두룡리)",CVNTL_22_41220_02981,,"",경기도 평택시 고덕면 두릉리 547-1,근린공원,36470,"","","","","",2013-01-04,경기도 평택시청,"031-8024-4247","2022-07-11",,37.0501670000,127.0151750000
경기도,평택시,고덕동,"41220128",생활편의형SOC,CVNTL,도시공원,"28호 어린이공원(서정동)",CVNTL_22_41220_02965,,"",경기도 평택시 서정동 632,어린이공원,2049,"","","","","",2015-04-03,경기도 평택시청,"031-8024-4247","2022-07-11",,37.0636940000,127.0452500000
경기도,평택시,고덕동,"41220128",생활편의형SOC,CVNTL,도시공원,"41호 어린이공원(고덕국제화지구 두릉리)",CVNTL_22_41220_02986,,경기도 평택시 고덕면 안재홍로 46-9,경기도 평택시 고덕면 두릉리 631-1,어린이공원,2182,"","","","","",2015-04-03,경기도 평택시청,"031-8024-4247","2022-07-11",,37.0556680000,127.0252760000
경기도,평택시,고덕동,"41220128",생활편의형SOC,CVNTL,도시공원,"42호 어린이공원(고덕국제화지구 두릉리)",CVNTL_22_41220_02987,,"",경기도 평택시 고덕면 두릉리 593-4,어린이공원,2345,"","","","","",2015-04-03,경기도 평택시청,"031-8024-4247","2022-07-11",,37.0556300000,127.0230300000
경기도,평택시,고덕동,"41220128",생활편의형SOC,CVNTL,도시공원,"43호 어린이공원(고덕국제화지구 해창리)",CVNTL_22_41220_02988,,"",경기도 평택시 고덕면 해창리 490-2,어린이공원,1511,"","","","","",2015-04-03,경기도 평택시청,"031-8024-4247","2022-07-11",,37.0424770000,127.0147800000
경기도,평택시,고덕동,"41220128",생활편의형SOC,CVNTL,도시공원,"45호 어린이공원(고덕국제화지구 율포리)",CVNTL_22_41220_02990,,"",경기도 평택시 고덕동 376,어린이공원,1868,"","","","","",2015-04-03,경기도 평택시청,"031-8024-4247","2022-07-11",,37.0503040000,127.0341300000
경기도,평택시,고덕동,"41220128",생활편의형SOC,CVNTL,도시공원,"46호 어린이공원(고덕국제화지구  해창리)",CVNTL_22_41220_02991,,"",경기도 평택시 고덕면 해창리 61-1,어린이공원,1857,"","","","","",2015-04-03,경기도 평택시청,"031-8024-4247","2022-07-11",,37.0312460000,127.0318600000
경기도,평택시,고덕동,"41220128",생활편의형SOC,CVNTL,도시공원,"50호 어린이공원(고덕국제화지구  해창리)",CVNTL_22_41220_02994,,"",경기도 평택시 고덕면 해창리 382,어린이공원,6614,"","","","","",2015-04-03,경기도 평택시청,"031-8024-4247","2022-07-11",,37.0367160000,127.0232900000
경기도,평택시,고덕동,"41220128",생활편의형SOC,CVNTL,도시공원,"11호 어린이공원(서정동)",CVNTL_22_41220_03000,,경기도 평택시 서정로142번길 60-31,경기도 평택시 서정동 산110-4,어린이공원,6557,"","","","","",2013-01-04,경기도 평택시청,"031-8024-4247","2022-07-11",,37.0663760000,127.0480100000
경기도,평택시,고덕동,"41220128",생활편의형SOC,CVNTL,도시공원,"14호 어린이공원(고덕국제화지구  두릉리)",CVNTL_22_41220_03001,,"",경기도 평택시 고덕면 두릉리 529-1,어린이공원,1770,"","","","","",2013-01-04,경기도 평택시청,"031-8024-4247","2022-07-11",,37.0555530000,127.0172500000
경기도,평택시,고덕동,"41220128",생활편의형SOC,CVNTL,도시공원,"17호 어린이공원(고덕국제화지구 좌교리)",CVNTL_22_41220_03002,,"",경기도 평택시 고덕면 좌교리 399-1,어린이공원,4449,"","","","","",2013-01-04,경기도 평택시청,"031-8024-4247","2022-07-11",,37.0441250000,127.0136600000
경기도,평택시,고덕동,"41220128",생활편의형SOC,CVNTL,도시공원,"18호 어린이공원(고덕국제화지구 해창리)",CVNTL_22_41220_03003,,경기도 평택시 고덕면 문화마을길 58-32,경기도 평택시 고덕면 해창리 485-1,어린이공원,3888,"","","","","",2013-01-04,경기도 평택시청,"031-8024-4247","2022-07-11",,37.0414800000,127.0141750000
경기도,평택시,고덕동,"41220128",생활편의형SOC,CVNTL,도시공원,"9호 어린이공원(서정동)",CVNTL_22_41220_03004,,"",경기도 평택시 서정동 산127-13,어린이공원,5638,"","","","","",2013-01-04,경기도 평택시청,"031-8024-4247","2022-07-11",,37.0616800000,127.0490400000
경기도,평택시,고덕동,"41220128",생활편의형SOC,CVNTL,도시공원,수변공원 2호(고덕국제화지구 궁리),CVNTL_22_41220_03305,,"",경기도 평택시 고덕면 궁리 303-2,수변공원,67862,"","","","","",2013-01-04,경기도 평택시청,"031-8024-4247","2022-07-11",,37.0274200000,127.0333200000
경기도,평택시,고덕동,"41220128",생활편의형SOC,CVNTL,도시공원,"40호 어린이공원(고덕국제화지구 두릉리)",CVNTL_22_41220_02983,,"",경기도 평택시 고덕동 2386-4,어린이공원,1522,"","","","","",2015-04-03,경기도 평택시청,"031-8024-4247","2022-07-11",,37.0585940000,127.0284900000
경기도,평택시,고덕동,"41220128",생활편의형SOC,CVNTL,도시공원,"44호 어린이공원(고덕국제화지구 율포리)",CVNTL_22_41220_02989,,"",경기도 평택시 고덕동 2412,어린이공원,2369,"","","","","",2015-04-03,경기도 평택시청,"031-8024-4247","2022-07-11",,37.0473100000,127.0302200000
경기도,평택시,고덕동,"41220128",생활편의형SOC,CVNTL,도시공원,수변공원 5호(고덕국제화지구 좌교리),CVNTL_22_41220_02956,,"",경기도 평택시 고덕면 좌교리 94,수변공원,8662,"","","","","",2013-01-04,경기도 평택시청,"031-8024-4247","2022-07-11",,37.0337100000,127.0367200000
경기도,평택시,고덕동,"41220128",생활편의형SOC,CVNTL,도시공원,"27호 어린이공원(율포리)",CVNTL_22_41220_02964,,"",경기도 평택시 고덕동 334-2,어린이공원,3898,"","","","","",2015-04-03,경기도 평택시청,"031-8024-4247","2022-07-11",,37.0513420000,127.0410400000
경기도,평택시,고덕동,"41220128",생활편의형SOC,CVNTL,도시공원,"2호 어린이공원(여염리)",CVNTL_22_41220_02967,,"",경기도 평택시 고덕면 여염리 326-4,어린이공원,2072,"","","","","",2013-01-04,경기도 평택시청,"031-8024-4247","2022-07-11",,37.0395800000,127.0450700000
경기도,구리시,갈매동,"41310101",생활편의형SOC,CVNTL,도시공원,갈매천공원,CVNTL_22_41310_00425,,"",경기도 구리시 갈매동 506-3,수변공원,50338,"","","","","",2010-04-27,경기도 구리시청,"","2022-07-11",,37.6389240000,127.1218600000
경기도,평택시,고덕동,"41220128",생활편의형SOC,CVNTL,도시공원,봉골 근린공원(고덕일반산업단지),CVNTL_22_41220_02984,,"",경기도 평택시 고덕면 여염리 1683,근린공원,115620.2,다목적운동장,"",음수전+자전거보관대+화장실,"",L형측구+PE빗물받이+QC밸브+배수관(PE이중벽관)+배수관(PVC PIPE)+상수관로+오수관로(PE이중벽관)+집수정A+측구B+측구수로관+측구수로관A,2010-11-16,경기도 평택시청,"031-8024-4247","2022-07-11",,37.0261840000,127.0635100000
경기도,평택시,고덕동,"41220128",생활편의형SOC,CVNTL,도시공원,"25호 어린이공원(여염리)",CVNTL_22_41220_03006,,"",경기도 평택시 고덕면 여염리 산60,어린이공원,3378,"","","","","",2015-04-03,경기도 평택시청,"031-8024-4247","2022-07-11",,37.0375980000,127.0461900000
경기도,평택시,고덕동,"41220128",생활편의형SOC,CVNTL,도시공원,"49호 어린이공원(율포리)",CVNTL_22_41220_02993,,"",경기도 평택시 고덕동 2620-1,어린이공원,9077,"","","","","",2015-04-03,경기도 평택시청,"031-8024-4247","2022-07-11",,37.0427800000,127.0419540000
경기도,평택시,고덕동,"41220128",생활편의형SOC,CVNTL,도시공원,성두 소공원(고덕일반산업단지 소공원1),CVNTL_22_41220_02961,,"",경기도 평택시 고덕동 1714,소공원,2280.1,생활체육시설 B+생활체육시설 C+생활체육시설 D,"",자전거보관대,"",벤치플륨관+스틸그레이팅+시설물표찰+집수정A,2010-11-16,경기도 평택시청,"031-8024-4247","2022-07-11",,37.0350380000,127.0440500000
경기도,평택시,고덕동,"41220128",생활편의형SOC,CVNTL,도시공원,수변공원 10호(고덕국제화지구 율포리),CVNTL_22_41220_02949,,"",경기도 평택시 고덕동 1694-251,수변공원,11800,"","","","","",2013-01-04,경기도 평택시청,"031-8024-4247","2022-07-11",,37.0420460000,127.0448000000
경기도,평택시,고덕동,"41220128",생활편의형SOC,CVNTL,도시공원,수변공원 11호(고덕국제화지구 여염리),CVNTL_22_41220_02950,,"",경기도 평택시 고덕동 1692-8,수변공원,10395,"","","","","",2013-01-04,경기도 평택시청,"031-8024-4247","2022-07-11",,37.0429230000,127.0473700000
경기도,평택시,고덕동,"41220128",생활편의형SOC,CVNTL,도시공원,수변공원 6호(고덕국제화지구 여염리),CVNTL_22_41220_02957,,"",경기도 평택시 고덕동 2044,수변공원,7599,"","","","","",2013-01-04,경기도 평택시청,"031-8024-4247","2022-07-11",,37.0357930000,127.0461700000
경기도,평택시,고덕동,"41220128",생활편의형SOC,CVNTL,도시공원,수변공원 7호(고덕국제화지구 여염리),CVNTL_22_41220_02958,,경기도 평택시 고덕여염5길 72,경기도 평택시 고덕동 2271-3,수변공원,35231,"","","","","",2013-01-04,경기도 평택시청,"031-8024-4247","2022-07-11",,37.0368580000,127.0416200000
경기도,평택시,고덕동,"41220128",생활편의형SOC,CVNTL,도시공원,용우물 소공원(고덕일반산업단지 소공원3),CVNTL_22_41220_02962,,"",경기도 평택시 고덕면 여염리 1652,소공원,2099.3,생활체육시설 B+생활체육시설 C+생활체육시설 D,"",자전거보관대,"",벤치플륨관+스틸그레이팅+시설물표찰+집수정A,2010-11-16,경기도 평택시청,"031-8024-4247","2022-07-11",,37.0385800000,127.0507700000
경기도,평택시,고덕동,"41220128",생활편의형SOC,CVNTL,도시공원,수변공원 1호(고덕국제화지구 해창리),CVNTL_22_41220_02953,,"",경기도 평택시 고덕면 해창리 99,수변공원,4809,"","","","","",2013-01-04,경기도 평택시청,"031-8024-4247","2022-07-11",,37.0273320000,127.0292100000
경기도,평택시,고덕동,"41220128",생활편의형SOC,CVNTL,도시공원,수변공원 8호(고덕국제화지구 율포리),CVNTL_22_41220_02959,,"",경기도 평택시 고덕동 2620-5,수변공원,11150,"","","","","",2013-01-04,경기도 평택시청,"031-8024-4247","2022-07-11",,37.0419460000,127.0425400000
경기도,평택시,고덕면,"41220330",생활편의형SOC,CVNTL,도시공원,"47호 어린이공원(고덕국제화지구 당현리)",CVNTL_22_41220_03008,,"",경기도 평택시 고덕면 당현리 524-2,어린이공원,9166,"","","","","",2015-04-03,경기도 평택시청,"031-8024-4247","2022-07-11",,37.0647500000,127.0319060000
경기도,평택시,고덕면,"41220330",생활편의형SOC,CVNTL,도시공원,두릉이주 어린이공원,CVNTL_22_41220_03009,,"",경기도 평택시 고덕면 두릉리 797-1,어린이공원,1872.8,마라톤운동기+배드민턴장+배드민턴지주대+옆파도타기+온몸근육풀기+온몸역기올리기+온몸허리돌리기+윗몸일으키기+하늘걷기,고무칩포장+조합놀이대,음수전,"",디자인집수정+상수관+수목보호대+우수관+제수변+집수정+트랜치,2006-08-28,경기도 평택시청,"031-8024-4247","2022-07-11",,37.0634160000,127.0276640000
경기도,평택시,고덕면,"41220330",생활편의형SOC,CVNTL,도시공원,소풍정원공원,CVNTL_22_41220_03010,,"",경기도 평택시 고덕면 궁리 424-25,수변공원,112245,"",그네+그네보호대+모래포장+반원터널분수+우산워터드롭+워터샤워+조합놀이대+탄성고무칩포장,샤워장+세척장+음수전+화장실,"",PE이중벽관+맹암거+미로원+빗물받이+소풍정원액자 포토존+수질정화기+엣지+자연석쌓기+집수정,2016-02-29,경기도 평택시청,"031-8024-4247","2022-07-11",,37.0118520000,127.0205900000
경기도,평택시,고덕면,"41220330",생활편의형SOC,CVNTL,도시공원,고덕문화마을2 마을쉼터공원,CVNTL_22_41220_03011,,"",경기도 평택시 고덕면 해창리 1148-4,기타,987.2,"","","","","",2000-06-07,경기도 평택시청,"031-8024-4247","2022-07-11",,37.0381770000,127.0145340000
경기도,평택시,고덕면,"41220330",생활편의형SOC,CVNTL,도시공원,"33호 어린이공원(고덕국제화지구  해창리)",CVNTL_22_41220_03306,,"",경기도 평택시 고덕면 해창리 733-27,어린이공원,2258,"","","","","",2015-04-03,경기도 평택시청,"031-8024-4247","2022-07-11",,37.0264400000,127.0171600000
경기도,평택시,고덕면,"41220330",생활편의형SOC,CVNTL,도시공원,고덕문화마을1 소공원,CVNTL_22_41220_03402,,"",경기도 평택시 고덕면 해창리 1141-1,소공원,1230.4,농구대+온몸근육풀기+온몸허리돌리기+철봉+하늘걷기,그네+그네보호대+모래포장+조합놀이대,주차장,"",공사조형기념비+배수로,2000-06-07,경기도 평택시청,"031-8024-4247","2022-07-11",,37.0402800000,127.0148300000
경기도,평택시,고덕면,"41220330",생활편의형SOC,CVNTL,도시공원,문곡1리 마을쉼터공원,CVNTL_22_41220_03013,,"",경기도 평택시 고덕면 문곡리 419,기타,1000,어깨근육풀기+온몸역기내리기+온몸허리돌리기+윗몸일으키기,고무매트포장+그네+그네보호대+조합놀이대,"","",집수정,,경기도 평택시청,"031-8024-4247","2022-07-11",,37.0662540000,127.0120100000
경기도,평택시,고덕면,"41220330",생활편의형SOC,CVNTL,도시공원,"11호 근린공원(고덕국제화지구  해창리)",CVNTL_22_41220_03007,,"",경기도 평택시 고덕면 해창리 531,근린공원,61914,"","","","","",2013-01-04,경기도 평택시청,"031-8024-4247","2022-07-11",,37.0388500000,127.0160800000
경기도,평택시,고덕면,"41220330",생활편의형SOC,CVNTL,도시공원,궁2리 근린공원(궁리2지구),CVNTL_22_41220_03404,,"",경기도 평택시 고덕면 궁리 524,근린공원,19409,"","","","","",2016-04-28,경기도 평택시청,"031-8024-4247","2022-07-11",,37.0214900000,127.0363200000
경기도,고양시 덕양구,내유동,"41281119",생활편의형SOC,CVNTL,도시공원,내유동문화공원,CVNTL_22_41281_00017,,경기도 고양시 덕양구 유산길 96,경기도 고양시 덕양구 내유동 769-5,문화공원,5660,"","","","","",2017-12-15,경기도 고양시 푸른도시사업소,"031-8075-4323","2022-07-11",,37.7314200000,126.8484300000
경기도,안산시 상록구,팔곡일동,"41271110",생활편의형SOC,CVNTL,도시공원,팔곡공원,CVNTL_22_41271_01967,,경기도 안산시 상록구 소학길 8,경기도 안산시 상록구 팔곡일동 681-1,어린이공원,1500,"","","","","",2002-03-04,경기도 안산시청,"031-481-5436","2022-07-11",,37.2975800000,126.8871900000
경기도,평택시,칠원동,"41220105",생활편의형SOC,CVNTL,도시공원,수촌1 소공원(수촌지구),CVNTL_22_41220_03017,,"",경기도 평택시 칠원동 440-3,소공원,1704,"","","","","",2009-12-16,경기도 평택시청,"031-8024-4247","2022-07-11",,37.0217300000,127.1054200000
경기도,평택시,칠원동,"41220105",생활편의형SOC,CVNTL,도시공원,수촌1 수변공원(수촌지구),CVNTL_22_41220_03014,,경기도 평택시 수촌길 46-10,경기도 평택시 칠원동 289-25,수변공원,21187,"","","","","",2009-12-16,경기도 평택시청,"031-8024-4247","2022-07-11",,37.0199280000,127.1139000000
경기도,평택시,칠원동,"41220105",생활편의형SOC,CVNTL,도시공원,칠원 소공원,CVNTL_22_41220_03018,,"",경기도 평택시 칠원동 58-1,소공원,3863,다리뻗치기+어깨근육풀기+옆파도타기+온몸허리돌리기+하늘걷기,"",음수전,"",공적비+기념비석+스탬프 찍는곳+연결관+자연석쌓기+준공기념비+칠원동주민송덕비+트랜치,1996-12-17,경기도 평택시청,"031-8024-4247","2022-07-11",,37.0320130000,127.1006600000
경기도,평택시,칠원동,"41220105",생활편의형SOC,CVNTL,도시공원,신촌 쇠물뿌리 체육공원(신촌지구  동부 102호),CVNTL_22_41220_03020,,"",경기도 평택시 칠원동 417-1,체육공원,10849,"","","","","",2009-12-16,경기도 평택시청,"031-8024-4247","2022-07-11",,37.0240860000,127.1037700000
경기도,평택시,칠원동,"41220105",생활편의형SOC,CVNTL,도시공원,수촌2 어린이공원(수촌지구),CVNTL_22_41220_03022,,"",경기도 평택시 칠원동 250-8,어린이공원,1984,"","","","","",2009-12-16,경기도 평택시청,"031-8024-4247","2022-07-11",,37.0210200000,127.1102000000
경기도,평택시,칠원동,"41220105",생활편의형SOC,CVNTL,도시공원,신촌 새마답 어린이공원(신촌지구 동부 103호),CVNTL_22_41220_03023,,"",경기도 평택시 칠원동 산36-7,어린이공원,3627,"","","","","",2009-12-16,경기도 평택시청,"031-8024-4247","2022-07-11",,37.0273060000,127.1038700000
경기도,평택시,칠원동,"41220105",생활편의형SOC,CVNTL,도시공원,신촌 장자울 어린이공원(신촌지구 동부 104호),CVNTL_22_41220_03024,,경기도 평택시 새말로 38-2,경기도 평택시 칠원동 128-2,어린이공원,4029,"","","","","",2009-12-16,경기도 평택시청,"031-8024-4247","2022-07-11",,37.0273930000,127.1046800000
경기도,평택시,칠원동,"41220105",생활편의형SOC,CVNTL,도시공원,수촌 근린공원(수촌지구),CVNTL_22_41220_03025,,"",경기도 평택시 칠원동 313-1,근린공원,12249,"","","","","",2009-12-16,경기도 평택시청,"031-8024-4247","2022-07-11",,37.0194100000,127.1093100000
경기도,평택시,칠원동,"41220105",생활편의형SOC,CVNTL,도시공원,신촌 새말 근린공원(신촌지구 동부 101호),CVNTL_22_41220_03026,,"",경기도 평택시 칠원동 산36-36,근린공원,12317,"","","","","",2009-12-16,경기도 평택시청,"031-8024-4247","2022-07-11",,37.0240800000,127.1049960000
경기도,고양시 일산서구,일산동,"41287101",생활편의형SOC,CVNTL,도시공원,중산 10(한뫼)공원,CVNTL_22_41287_00216,,"",경기도 고양시 일산서구 일산동 1557-1,어린이공원,4962,체력단련시설,조합놀이대+흔들놀이대,"","","",1991-05-31,경기도 고양시 일산서구청,"031-8075-7266","2022-07-11",,37.6942900000,126.7770600000
경기도,고양시 일산서구,일산동,"41287101",생활편의형SOC,CVNTL,도시공원,도화공원,CVNTL_22_41287_00217,,경기도 고양시 일산서구 일산로 604,경기도 고양시 일산서구 일산동 1043,어린이공원,4999,체력단련시설,조합놀이대+정글짐+시소+흔들놀이대,화장실,"","",1991-06-29,경기도 고양시 일산서구청,"031-8075-7266","2022-07-11",,37.6822970000,126.7622450000
경기도,고양시 일산서구,일산동,"41287101",생활편의형SOC,CVNTL,도시공원,윗말공원,CVNTL_22_41287_00218,,경기도 고양시 일산서구 고봉로 189-3,경기도 고양시 일산서구 일산동 1095,어린이공원,6400,체력단련시설,조합놀이대+그네+시소+흔들놀이대+회전놀이대,화장실,"","",1991-06-29,경기도 고양시 일산서구청,"031-8075-7266","2022-07-11",,37.6772160000,126.7740800000
경기도,고양시 일산서구,일산동,"41287101",생활편의형SOC,CVNTL,도시공원,중산 10(한뫼)공원,CVNTL_22_41287_00219,,경기도 고양시 일산서구 탄중로 284,경기도 고양시 일산서구 일산동 1558,근린공원,27167,체력단련시설,"","","","",1991-05-31,경기도 고양시 푸른도시사업소,"031-8075-4343","2022-07-11",,37.6935100000,126.7762000000
