시도명,시군구명,법정읍면동명,읍면동아이디,SOC유형,SOC유형아이디,구분명,시설명,시설물 아이디,인허가일자,도로명주소,지번주소,충전소위치 상세,휴점일,이용가능 시작시각,이용가능 종료시각,완속충전 가능여부,급속충전 가능여부,급속충전 타입구분,완속충전기 대수,급속충전기 대수,주차료부과 여부,관리업체명,관리업체 전화번호,데이터 갱신일자,업태구분명,위도,경도
경기도,광명시,광명동,"41210101",생활편의형SOC,CVNTL,전기충전소,광명시돔경륜장,CVNTL_25_41210_00211,,경기도 광명시 광명로 721,경기도 광명시 광명동 780,,,,,,,,,,,한국전기차충전서비스,,2022-07-11,,37.4677850000,126.8449500000
경기도,부천시,상동,"41190109",생활편의형SOC,CVNTL,전기충전소,부천체육문화센터,CVNTL_25_41190_00531,,경기도 부천시 조마루로 2,경기도 부천시 상동 572-1,,,,,,,,,,,케이티,,2022-07-11,,37.4993970000,126.7447900000
경기도,부천시,심곡본동,"41190111",생활편의형SOC,CVNTL,전기충전소,대산동행정복지센터,CVNTL_25_41190_00507,,경기도 부천시 심곡로9번길 54,경기도 부천시 심곡본동 665-13,,,,,,,,,,,한국전기차충전서비스,,2022-07-11,,37.4824450000,126.7790000000
경기도,과천시,문원동,"41290102",생활편의형SOC,CVNTL,전기충전소,사기막골1공영주차장,CVNTL_25_41290_00188,,"",경기도 과천시 문원동 324-14,,,,,,,,,,,한국전기차충전서비스,,2022-07-11,,37.4197240000,126.9991800000
경기도,고양시 일산동구,중산동,"41285102",생활편의형SOC,CVNTL,전기충전소,고양시 호텔박스,CVNTL_25_41285_00104,,경기도 고양시 일산동구 약산길 5-24,경기도 고양시 일산동구 중산동 42-1,,,,,,,,,,,차지비,,2022-07-11,,37.6801100000,126.7910800000
경기도,수원시 팔달구,매교동,"41115133",생활편의형SOC,CVNTL,전기충전소,수원시 매교동 주민센터,CVNTL_25_41115_00828,,경기도 수원시 팔달구 효원로55번길 57,경기도 수원시 팔달구 매교동 88-1,,,,,,,,,,,차지비,,2022-07-11,,37.2686770000,127.0144100000
경기도,화성시,정남면,"41590410",생활편의형SOC,CVNTL,전기충전소,화성북경반점,CVNTL_25_41590_01778,,경기도 화성시 정남면 정남동로 43,경기도 화성시 덕절리 472-1,,,,,,,,,,,제주전기자동차서비스,,2022-07-11,,37.1393430000,127.0331200000
경기도,김포시,대곶면,"41570340",생활편의형SOC,CVNTL,전기충전소,프리존모텔,CVNTL_25_41570_00329,,경기도 김포시 대곶면 약암로 786-38,경기도 김포시 대곶면 약암리 1351,,,,,,,,,,,에버온,,2022-07-11,,37.6256700000,126.5591400000
경기도,군포시,산본동,"41410104",생활편의형SOC,CVNTL,전기충전소,산본e편한세상센트럴파크아파트,CVNTL_25_41410_00296,,경기도 군포시 고산로 596-15,경기도 군포시 산본동 1121,,,,,,,,,,,케이티,,2022-07-11,,37.3642230000,126.9290500000
경기도,포천시,신읍동,"41650101",생활편의형SOC,CVNTL,전기충전소,한국전력공사 포천지사,CVNTL_25_41650_01691,,경기도 포천시 원모루로 12,경기도 포천시 신읍동 380-1,,,,,,,,,,,한국전력,,2022-07-11,,37.8903800000,127.1953500000
경기도,남양주시,다산동,"41360112",생활편의형SOC,CVNTL,전기충전소,플루리움1단지아파트,CVNTL_25_41360_00435,,경기도 남양주시 도농로 34,경기도 남양주시 도농동 2-1,,,,,,,,,,,케이티,,2022-07-11,,37.6103860000,127.1576160000
경기도,남양주시,다산동,"41360112",생활편의형SOC,CVNTL,전기충전소,이마트 다산점,CVNTL_25_41360_00386,,경기도 남양주시 도농로 24,경기도 남양주시 도농동 1-29,,,,,,,,,,,환경부(한국자동차환경협회),,2022-07-11,,37.6085470000,127.1586800000
경기도,여주시,강천면,"41670370",생활편의형SOC,CVNTL,전기충전소,종단대순진리회여주본부도장1,CVNTL_25_41670_01218,,경기도 여주시 강천면 강천로 897,경기도 여주시 가야리 651-1,,,,,,,,,,,이카플러그,,2022-07-11,,37.2791330000,127.6895300000
경기도,수원시 팔달구,신풍동,"41115130",생활편의형SOC,CVNTL,전기충전소,행궁동 생태공원,CVNTL_25_41115_00825,,,경기도 수원시 팔달구 신풍동 154-1,,,,,,,,,,,수원시,,2022-07-11,,37.2850400000,127.0144800000
경기도,용인시 처인구,역북동,"41461102",생활편의형SOC,CVNTL,전기충전소,용인중앙도서관,CVNTL_25_41461_01406,,경기도 용인시 처인구 명지로 27,경기도 용인시 처인구 역북동 504-1,,,,,,,,,,,한국전력,,2022-07-11,,37.2334500000,127.1903600000
경기도,화성시,향남읍,"41590259",생활편의형SOC,CVNTL,전기충전소,대방노블랜드아파트,CVNTL_25_41590_01798,,경기도 화성시 향남읍 행정중앙2로 85,경기도 화성시 향남읍 행정리 485,,,,,,,,,,,케이티,,2022-07-11,,37.1296000000,126.9251500000
경기도,화성시,반월동,"41590120",생활편의형SOC,CVNTL,전기충전소,이편한세상 반월나노시티역아파트 입주자대표회의,CVNTL_25_41590_01816,,경기도 화성시 효행로 1337-23,경기도 화성시 반월동 960,,,,,,,,,,,대영채비,,2022-07-11,,37.2257460000,127.0614900000
경기도,파주시,와동동,"41480122",생활편의형SOC,CVNTL,전기충전소,가람마을8단지동문굿모닝힐,CVNTL_25_41480_01581,,경기도 파주시 금바위로 47,경기도 파주시 와동동 205,,,,,,,,,,,케이티,,2022-07-11,,37.7282500000,126.7561000000
경기도,남양주시,별내동,"41360111",생활편의형SOC,CVNTL,전기충전소,남양주별내더샵아파트3동,CVNTL_25_41360_00414,,"",경기도 남양주시 별내동 922,,,,,,,,,,,케이티,,2022-07-11,,37.6510120000,127.1251300000
경기도,남양주시,별내동,"41360111",생활편의형SOC,CVNTL,전기충전소,별내동주민센터,CVNTL_25_41360_00416,,경기도 남양주시 별내3로 64-21,경기도 남양주시 별내동 1028,,,,,,,,,,,환경부(한국자동차환경협회),,2022-07-11,,37.6461680000,127.1218800000
경기도,남양주시,진접읍,"41360253",생활편의형SOC,CVNTL,전기충전소,경복대학교 남양주캠퍼스,CVNTL_25_41360_00417,,경기도 남양주시 진접읍 경복대로 425,경기도 남양주시 진접읍 금곡리 383,,,,,,,,,,,한국전기차충전서비스,,2022-07-11,,37.7355200000,127.2106860000
경기도,남양주시,진접읍,"41360253",생활편의형SOC,CVNTL,전기충전소,하나로마트 진접점,CVNTL_25_41360_00418,,경기도 남양주시 진접읍 해밀예당1로 8,경기도 남양주시 진접읍 연평리 110,,,,,,,,,,,한국전력,,2022-07-11,,37.7096940000,127.1850050000
경기도,남양주시,진접읍,"41360253",생활편의형SOC,CVNTL,전기충전소,남양주시 진접오남행정복지센터,CVNTL_25_41360_00420,,경기도 남양주시 진접읍 금강로 1509-26,경기도 남양주시 진접읍 장현리 68-39,,,,,,,,,,,지엔텔,,2022-07-11,,37.7262700000,127.1898300000
경기도,남양주시,진접읍,"41360253",생활편의형SOC,CVNTL,전기충전소,㈜경기자동차,CVNTL_25_41360_00421,,경기도 남양주시 진접읍 금강로 1943-11,경기도 남양주시 진접읍 팔야리 415-4,,,,,,,,,,,대영채비,,2022-07-11,,37.7548370000,127.2162200000
경기도,남양주시,진접읍,"41360253",생활편의형SOC,CVNTL,전기충전소,홈플러스 진접점,CVNTL_25_41360_00422,,경기도 남양주시 진접읍 금강로 1447,경기도 남양주시 진접읍 장현리 216-1,,,,,,,,,,,한국전력,,2022-07-11,,37.7216030000,127.1889650000
경기도,파주시,금촌동,"41480101",생활편의형SOC,CVNTL,전기충전소,건일장미5차아파트,CVNTL_25_41480_01606,,경기도 파주시 황골로 18,경기도 파주시 금촌동 228-1,,,,,,,,,,,케이티,,2022-07-11,,37.7544000000,126.7701300000
경기도,파주시,금촌동,"41480101",생활편의형SOC,CVNTL,전기충전소,금촌2공영주차장,CVNTL_25_41480_01613,,경기도 파주시 금빛로 28,경기도 파주시 금촌동 987-1,,,,,,,,,,,한국전기차충전서비스,,2022-07-11,,37.7522200000,126.7671100000
경기도,광주시,추자동,"41610118",생활편의형SOC,CVNTL,전기충전소,오포읍행정복지센터,CVNTL_25_41610_00243,,경기도 광주시 오포읍 오포로859번길 29,경기도 광주시 오포읍 추자리 102-16,,,,,,,,,,,지엔텔,,2022-07-11,,37.3661160000,127.2286100000
경기도,광명시,하안동,"41210103",생활편의형SOC,CVNTL,전기충전소,광명시 보건소주차장,CVNTL_25_41210_00198,,경기도 광명시 오리로 613,경기도 광명시 하안동 230,,,,,,,,,,,지엔텔,,2022-07-11,,37.4559000000,126.8784500000
경기도,평택시,신장동,"41220112",생활편의형SOC,CVNTL,전기충전소,평택송탄역클래시아,CVNTL_25_41220_01635,,경기도 평택시 탄현로 261,경기도 평택시 신장동 243-3,,,,,,,,,,,케이티,,2022-07-11,,37.0759200000,127.0549300000
경기도,포천시,신북면,"41650340",생활편의형SOC,CVNTL,전기충전소,포천윤중아파트,CVNTL_25_41650_01696,,경기도 포천시 신북면 호국로 2135-14,경기도 포천시 신북면 기지리 101-3,,,,,,,,,,,케이티,,2022-07-11,,37.9410630000,127.2307300000
경기도,파주시,동패동,"41480113",생활편의형SOC,CVNTL,전기충전소,책향기마을 우남퍼스트빌,CVNTL_25_41480_01615,,경기도 파주시 책향기로 207,경기도 파주시 동패동 1711,,,,,,,,,,,케이티,,2022-07-11,,37.7213900000,126.7190000000
경기도,파주시,동패동,"41480113",생활편의형SOC,CVNTL,전기충전소,책향기마을11단지신동아파밀리에,CVNTL_25_41480_01621,,경기도 파주시 책향기로 418,경기도 파주시 동패동 1703,,,,,,,,,,,케이티,,2022-07-11,,37.7241630000,126.7178900000
경기도,남양주시,진건읍,"41360259",생활편의형SOC,CVNTL,전기충전소,사릉역노외주차장,CVNTL_25_41360_00426,,"",경기도 남양주시 진건읍 사능리 604-12,,,,,,,,,,,한국전기차충전서비스,,2022-07-11,,37.6522600000,127.1759300000
경기도,군포시,대야미동,"41410108",생활편의형SOC,CVNTL,전기충전소,대야 제5공영주차장,CVNTL_25_41410_00314,,"",경기도 군포시 대야미동 649-1,,,,,,,,,,,군포시,,2022-07-11,,37.3290630000,126.9191200000
경기도,부천시,작동,"41190119",생활편의형SOC,CVNTL,전기충전소,쉐보레오정바로서비스,CVNTL_25_41190_00514,,경기도 부천시 까치로 111,경기도 부천시 작동 68-4,,,,,,,,,,,케이티,,2022-07-11,,37.5160980000,126.8053000000
경기도,안성시,봉산동,"41550101",생활편의형SOC,CVNTL,전기충전소,안성시청,CVNTL_25_41550_01023,,경기도 안성시 시청길 25,경기도 안성시 봉산동 31-3,,,,,,,,,,,에버온,,2022-07-11,,37.0079420000,127.2799100000
경기도,성남시 분당구,판교동,"41135108",생활편의형SOC,CVNTL,전기충전소,성남시 이마트 에브리데이(서판교점),CVNTL_25_41135_00557,,경기도 성남시 분당구 판교공원로5길 20,경기도 성남시 분당구 판교동 620,,,,,,,,,,,차지비,,2022-07-11,,37.3902800000,127.0902100000
경기도,안산시 단원구,선부동,"41273109",생활편의형SOC,CVNTL,전기충전소,롯데마트 선부점,CVNTL_25_41273_00916,,경기도 안산시 단원구 선부광장북로 67,경기도 안산시 단원구 선부동 1086,,,,,,,,,,,한국전기차충전서비스,,2022-07-11,,37.3376430000,126.8155400000
경기도,성남시 분당구,삼평동,"41135109",생활편의형SOC,CVNTL,전기충전소,디테라스,CVNTL_25_41135_00570,,경기도 성남시 분당구 판교로319번길 13,경기도 성남시 분당구 삼평동 691,,,,,,,,,,,한국전기차충전서비스,,2022-07-11,,37.4036870000,127.1090700000
경기도,화성시,향남읍,"41590259",생활편의형SOC,CVNTL,전기충전소,향남신명스카이뷰,CVNTL_25_41590_01797,,경기도 화성시 향남읍 행정중앙1로 15,경기도 화성시 향남읍 행정리 443,,,,,,,,,,,케이티,,2022-07-11,,37.1269000000,126.9152400000
경기도,화성시,향남읍,"41590259",생활편의형SOC,CVNTL,전기충전소,향남우미린아파트,CVNTL_25_41590_01799,,경기도 화성시 향남읍 행정중앙2로 14,경기도 화성시 향남읍 행정리 438,,,,,,,,,,,케이티,,2022-07-11,,37.1289440000,126.9161000000
경기도,화성시,봉담읍,"41590253",생활편의형SOC,CVNTL,전기충전소,해오름마을 봉담그대가아파트,CVNTL_25_41590_01815,,경기도 화성시 봉담읍 와우로73번길 22,경기도 화성시 봉담읍 와우리 239,,,,,,,,,,,케이티,,2022-07-11,,37.2151680000,126.9749000000
경기도,남양주시,화도읍,"41360256",생활편의형SOC,CVNTL,전기충전소,두산1차아파트,CVNTL_25_41360_00397,,"",경기도 남양주시 화도읍 창현리 757,,,,,,,,,,,케이티,,2022-07-11,,37.6472660000,127.3008650000
경기도,남양주시,오남읍,"41360262",생활편의형SOC,CVNTL,전기충전소,남양주시 오남읍사무소,CVNTL_25_41360_00423,,경기도 남양주시 오남읍 진건오남로 806-34,경기도 남양주시 오남읍 양지리 96-10,,,,,,,,,,,지엔텔,,2022-07-11,,37.6987720000,127.2047650000
경기도,남양주시,진건읍,"41360259",생활편의형SOC,CVNTL,전기충전소,남양주시농업기술센터,CVNTL_25_41360_00427,,경기도 남양주시 진건읍 사릉로 234-46,경기도 남양주시 진건읍 사능리 92-1,,,,,,,,,,,지엔텔,,2022-07-11,,37.6486320000,127.1959460000
경기도,파주시,동패동,"41480113",생활편의형SOC,CVNTL,전기충전소,한울마을2단지운정벽산블루밍아파트,CVNTL_25_41480_01616,,경기도 파주시 동패로 117,경기도 파주시 동패동 200-1,,,,,,,,,,,케이티,,2022-07-11,,37.7127530000,126.7384800000
경기도,안산시 단원구,선부동,"41273109",생활편의형SOC,CVNTL,전기충전소,안산시_선부3동행정복지센터,CVNTL_25_41273_00919,,경기도 안산시 단원구 선삼로2길 14-20,경기도 안산시 단원구 선부동 1135,,,,,,,,,,,한국전기차충전서비스,,2022-07-11,,37.3448220000,126.8126900000
경기도,광명시,소하동,"41210104",생활편의형SOC,CVNTL,전기충전소,광명동굴 제3공영주차장,CVNTL_25_41210_00204,,"",경기도 광명시 소하동 1069-1,,,,,,,,,,,한국전기차충전서비스,,2022-07-11,,37.4320870000,126.8780900000
경기도,김포시,장기동,"41570104",생활편의형SOC,CVNTL,전기충전소,고창마을한양수자인리버팰리스,CVNTL_25_41570_00355,,경기도 김포시 김포한강3로 290-13,경기도 김포시 장기동 1885-10,,,,,,,,,,,한국전기차충전서비스,,2022-07-11,,37.6434700000,126.6614700000
경기도,시흥시,배곧동,"41390135",생활편의형SOC,CVNTL,전기충전소,(주)NHF제9호공공임대(배곧센텀베이2차아파트,CVNTL_25_41390_00832,,경기도 시흥시 배곧4로 81-29,경기도 시흥시 배곧동 57,,,,,,,,,,,파워큐브,,2022-07-11,,37.3760900000,126.7354600000
경기도,광명시,일직동,"41210106",생활편의형SOC,CVNTL,전기충전소,주식회사 광명역환승파크,CVNTL_25_41210_00233,,경기도 광명시 서독로 392,경기도 광명시 일직동 380-10,,,,,,,,,,,에스트래픽,,2022-07-11,,37.4134030000,126.8831500000
경기도,성남시 수정구,신흥동,"41131101",생활편의형SOC,CVNTL,전기충전소,성남시 신흥1동 주민센터,CVNTL_25_41131_00648,,경기도 성남시 수정구 수정로188번길 7,경기도 성남시 수정구 신흥동 5481,,,,,,,,,,,차지비,,2022-07-11,,37.4429700000,127.1411500000
경기도,동두천시,동두천동,"41250107",생활편의형SOC,CVNTL,전기충전소,소요동 행정복지센터,CVNTL_25_41250_00462,,경기도 동두천시 평화로 2706,경기도 동두천시 동두천동 262,,,,,,,,,,,에버온,,2022-07-11,,37.9295040000,127.0572500000
경기도,부천시,송내동,"41190114",생활편의형SOC,CVNTL,전기충전소,부천시_송내2동주민센터,CVNTL_25_41190_00536,,경기도 부천시 중동로22번길 101,경기도 부천시 송내동 381-8,,,,,,,,,,,한국전기차충전서비스,,2022-07-11,,37.4825480000,126.7695850000
경기도,성남시 중원구,상대원동,"41133105",생활편의형SOC,CVNTL,전기충전소,성남우림라이온스밸리2차아파트,CVNTL_25_41133_00679,,경기도 성남시 중원구 사기막골로45번길 14,경기도 성남시 중원구 상대원동 146-8,,,,,,,,,,,케이티,,2022-07-11,,37.4365540000,127.1701500000
경기도,성남시 중원구,상대원동,"41133105",생활편의형SOC,CVNTL,전기충전소,금강하이테크2,CVNTL_25_41133_00680,,경기도 성남시 중원구 사기막골로 159,경기도 성남시 중원구 상대원동 138-1,,,,,,,,,,,케이티,,2022-07-11,,37.4428020000,127.1773150000
경기도,성남시 중원구,상대원동,"41133105",생활편의형SOC,CVNTL,전기충전소,성남우림라이온스밸리1차,CVNTL_25_41133_00681,,경기도 성남시 중원구 둔촌대로457번길 27,경기도 성남시 중원구 상대원동 311-3,,,,,,,,,,,케이티,,2022-07-11,,37.4338870000,127.1701050000
경기도,성남시 중원구,상대원동,"41133105",생활편의형SOC,CVNTL,전기충전소,성남 선경상대원2차,CVNTL_25_41133_00682,,경기도 성남시 중원구 금상로 134,경기도 성남시 중원구 상대원동 279-1,,,,,,,,,,,이카플러그,,2022-07-11,,37.4404070000,127.1685900000
경기도,김포시,월곶면,"41570350",생활편의형SOC,CVNTL,전기충전소,김포대학교 급속,CVNTL_25_41570_00378,,경기도 김포시 월곶면 김포대학로 81,경기도 김포시 월곶면 포내리 106-21,,,,,,,,,,,이카플러그,,2022-07-11,,37.7294240000,126.5464200000
경기도,양주시,덕정동,"41630110",생활편의형SOC,CVNTL,전기충전소,회천1동주민센터,CVNTL_25_41630_01160,,경기도 양주시 덕정길 67,경기도 양주시 덕정동 140-1,,,,,,,,,,,한국전력,,2022-07-11,,37.8440440000,127.0660200000
경기도,부천시,상동,"41190109",생활편의형SOC,CVNTL,전기충전소,부천시_상1동주민센터,CVNTL_25_41190_00489,,경기도 부천시 상일로 97,경기도 부천시 상동 396-2,,,,,,,,,,,한국전기차충전서비스,,2022-07-11,,37.4918170000,126.7531700000
경기도,용인시 처인구,원삼면,"41461340",생활편의형SOC,CVNTL,전기충전소,원삼면사무소,CVNTL_25_41461_01405,,경기도 용인시 처인구 원삼면 원양로 64,경기도 용인시 처인구 원삼면 고당리 88-1,,,,,,,,,,,한국전력,,2022-07-11,,37.1666300000,127.3135150000
경기도,의왕시,삼동,"41430103",생활편의형SOC,CVNTL,전기충전소,의왕시청,CVNTL_25_41430_01433,,경기도 의왕시 한백이길 7,경기도 의왕시 삼동 460-83,,,,,,,,,,,대영채비,,2022-07-11,,37.3222470000,126.9493560000
경기도,의왕시,삼동,"41430103",생활편의형SOC,CVNTL,전기충전소,현대자동차 의왕연구소,CVNTL_25_41430_01434,,경기도 의왕시 철도박물관로 37,경기도 의왕시 삼동 460-113,,,,,,,,,,,한국전기차충전서비스,,2022-07-11,,37.3245400000,126.9518100000
경기도,구리시,갈매동,"41310101",생활편의형SOC,CVNTL,전기충전소,한국지엠별내바로서비스,CVNTL_25_41310_00293,,경기도 구리시 담터길 62,경기도 구리시 갈매동 235-27,,,,,,,,,,,케이티,,2022-07-11,,37.6381230000,127.1172700000
경기도,구리시,갈매동,"41310101",생활편의형SOC,CVNTL,전기충전소,갈매퍼스트호텔,CVNTL_25_41310_00294,,경기도 구리시 갈매중앙로 89-7,경기도 구리시 갈매동 604,,,,,,,,,,,지엔텔,,2022-07-11,,37.6325340000,127.1168700000
경기도,시흥시,거모동,"41390127",생활편의형SOC,CVNTL,전기충전소,군자동주민센터,CVNTL_25_41390_00894,,경기도 시흥시 도일로102번길 11,경기도 시흥시 거모동 1660-2,,,,,,,,,,,에버온,,2022-07-11,,37.3399730000,126.7850900000
경기도,시흥시,신천동,"41390102",생활편의형SOC,CVNTL,전기충전소,경남아너스빌아파트,CVNTL_25_41390_00895,,경기도 시흥시 시흥대로 1117,경기도 시흥시 신천동 943-1,,,,,,,,,,,케이티,,2022-07-11,,37.4352530000,126.7915300000
경기도,의정부시,용현동,"41150105",생활편의형SOC,CVNTL,전기충전소,용현2차현대아파트,CVNTL_25_41150_01440,,경기도 의정부시 오목로 1,경기도 의정부시 용현동 221-3,,,,,,,,,,,케이티,,2022-07-11,,37.7318880000,127.0834300000
경기도,고양시 일산동구,장항동,"41285104",생활편의형SOC,CVNTL,전기충전소,일산호수공원제2공영주차장,CVNTL_25_41285_00081,,경기도 고양시 일산동구 호수로 731,경기도 고양시 일산동구 장항동 906,,,,,,,,,,,한국전기차충전서비스,,2022-07-11,,37.6644480000,126.7604450000
경기도,고양시 일산동구,장항동,"41285104",생활편의형SOC,CVNTL,전기충전소,양우드라마시티관리단,CVNTL_25_41285_00082,,경기도 고양시 일산동구 백마로213번길 36,경기도 고양시 일산동구 장항동 854-1,,,,,,,,,,,케이티,,2022-07-11,,37.6559830000,126.7730560000
경기도,고양시 일산동구,장항동,"41285104",생활편의형SOC,CVNTL,전기충전소,카닥일산주유소,CVNTL_25_41285_00083,,경기도 고양시 일산동구 백마로 54,경기도 고양시 일산동구 장항동 541-1,,,,,,,,,,,GS칼텍스,,2022-07-11,,37.6437570000,126.7617600000
경기도,수원시 권선구,구운동,"41113132",생활편의형SOC,CVNTL,전기충전소,이마트 서수원점,CVNTL_25_41113_00696,,경기도 수원시 권선구 수인로 291,경기도 수원시 권선구 구운동 925,,,,,,,,,,,환경부(한국자동차환경협회),,2022-07-11,,37.2826270000,126.9701460000
경기도,고양시 일산서구,덕이동,"41287105",생활편의형SOC,CVNTL,전기충전소,하이파크시티일산아이파크5단지,CVNTL_25_41287_00142,,경기도 고양시 일산서구 하이파크3로 62,경기도 고양시 일산서구 덕이동 1540,,,,,,,,,,,케이티,,2022-07-11,,37.6972730000,126.7546400000
경기도,고양시 일산서구,대화동,"41287104",생활편의형SOC,CVNTL,전기충전소,한국건설기술연구원,CVNTL_25_41287_00159,,경기도 고양시 일산서구 고양대로 315,경기도 고양시 일산서구 대화동 2311,,,,,,,,,,,한국전력,,2022-07-11,,37.6715300000,126.7401900000
경기도,김포시,사우동,"41570106",생활편의형SOC,CVNTL,전기충전소,풍년마을진흥아파트,CVNTL_25_41570_00373,,경기도 김포시 풍년로 19,경기도 김포시 사우동 857,,,,,,,,,,,케이티,,2022-07-11,,37.6235600000,126.7251600000
경기도,부천시,송내동,"41190114",생활편의형SOC,CVNTL,전기충전소,중동역푸르지오아파트,CVNTL_25_41190_00502,,경기도 부천시 중동로 64,경기도 부천시 송내동 372,,,,,,,,,,,케이티,,2022-07-11,,37.4850350000,126.7654100000
경기도,광주시,탄벌동,"41610105",생활편의형SOC,CVNTL,전기충전소,광주경찰서,CVNTL_25_41610_00235,,경기도 광주시 포돌이로 135,경기도 광주시 탄벌동 541-2,,,,,,,,,,,에스트래픽,,2022-07-11,,37.4081700000,127.2398500000
경기도,성남시 분당구,정자동,"41135103",생활편의형SOC,CVNTL,전기충전소,분당서울대학교병원 헬스케어혁신파크,CVNTL_25_41135_00604,,경기도 성남시 분당구 돌마로 172,경기도 성남시 분당구 정자동 217,,,,,,,,,,,케이티,,2022-07-11,,37.3543550000,127.1210300000
경기도,가평군,가평읍,"41820250",생활편의형SOC,CVNTL,전기충전소,가평지사,CVNTL_25_41820_00035,,경기도 가평군 가평읍 가화로 169-11,경기도 가평군 가평읍 읍내리 631-1,,,,,,,,,,,한국전력,,2022-07-11,,37.8340150000,127.5105900000
경기도,양주시,남방동,"41630103",생활편의형SOC,CVNTL,전기충전소,양주시청,CVNTL_25_41630_01154,,경기도 양주시 부흥로 1533,경기도 양주시 남방동 1-1,,,,,,,,,,,한국전력,,2022-07-11,,37.7850500000,127.0452500000
경기도,시흥시,장곡동,"41390130",생활편의형SOC,CVNTL,전기충전소,갯골생태공원,CVNTL_25_41390_00884,,경기도 시흥시 동서로 287,경기도 시흥시 장곡동 724-32,,,,,,,,,,,환경부(한국자동차환경협회),,2022-07-11,,37.3920560000,126.7798600000
경기도,동두천시,지행동,"41250102",생활편의형SOC,CVNTL,전기충전소,동두천부영3단지아파트,CVNTL_25_41250_00447,,경기도 동두천시 생연로 26,경기도 동두천시 지행동 691,,,,,,,,,,,케이티,,2022-07-11,,37.8950700000,127.0494600000
경기도,여주시,연양동,"41670118",생활편의형SOC,CVNTL,전기충전소,여주 썬밸리호텔,CVNTL_25_41670_01201,,경기도 여주시 강변유원지길 45,경기도 여주시 연양동 414,,,,,,,,,,,이카플러그,,2022-07-11,,37.2930900000,127.6610500000
경기도,성남시 분당구,서현동,"41135105",생활편의형SOC,CVNTL,전기충전소,한국정보통신기술협회,CVNTL_25_41135_00542,,경기도 성남시 분당구 분당로 47,경기도 성남시 분당구 서현동 267-2,,,,,,,,,,,케이티,,2022-07-11,,37.3837900000,127.1205900000
경기도,용인시 수지구,풍덕천동,"41465101",생활편의형SOC,CVNTL,전기충전소,수지구청,CVNTL_25_41465_01334,,경기도 용인시 수지구 포은대로 435,경기도 용인시 수지구 풍덕천동 720,,,,,,,,,,,한국전기차충전서비스,,2022-07-11,,37.3221240000,127.0975800000
경기도,파주시,동패동,"41480113",생활편의형SOC,CVNTL,전기충전소,파주시 이마트(파주운정점),CVNTL_25_41480_01622,,경기도 파주시 한울로 123,경기도 파주시 동패동 1763,,,,,,,,,,,차지비,,2022-07-11,,37.7103920000,126.7450940000
경기도,평택시,이충동,"41220109",생활편의형SOC,CVNTL,전기충전소,이충현대아파트,CVNTL_25_41220_01682,,경기도 평택시 송탄로 90,경기도 평택시 이충동 381,,,,,,,,,,,케이티,,2022-07-11,,37.0530930000,127.0571600000
경기도,고양시 일산동구,식사동,"41285101",생활편의형SOC,CVNTL,전기충전소,고양시 인선모터스,CVNTL_25_41285_00094,,경기도 고양시 일산동구 동국로 286,경기도 고양시 일산동구 식사동 273-1,,,,,,,,,,,차지비,,2022-07-11,,37.6920970000,126.8152160000
경기도,김포시,감정동,"41570105",생활편의형SOC,CVNTL,전기충전소,기아오토큐 감정점,CVNTL_25_41570_00352,,경기도 김포시 중봉로25번길 14,경기도 김포시 감정동 505,,,,,,,,,,,에스트래픽,,2022-07-11,,37.6243630000,126.6960750000
경기도,광주시,문형동,"41610117",생활편의형SOC,CVNTL,전기충전소,대원주유소,CVNTL_25_41610_00265,,경기도 광주시 오포읍 포은대로 38,경기도 광주시 오포읍 문형리 557-2,,,,,,,,,,,케이티,,2022-07-11,,37.3431430000,127.2020200000
경기도,양주시,장흥면,"41630340",생활편의형SOC,CVNTL,전기충전소,장흥문화체육센터,CVNTL_25_41630_01147,,경기도 양주시 장흥면 호국로 176-14,경기도 양주시 장흥면 일영리 153-5,,,,,,,,,,,한국전기차충전서비스,,2022-07-11,,37.7159700000,126.9406400000
경기도,여주시,창동,"41670103",생활편의형SOC,CVNTL,전기충전소,여주경찰서,CVNTL_25_41670_01223,,경기도 여주시 세종로 50,경기도 여주시 창동 155,,,,,,,,,,,에스트래픽,,2022-07-11,,37.2936250000,127.6346300000
경기도,고양시 일산동구,백석동,"41285106",생활편의형SOC,CVNTL,전기충전소,주식회사더한산업,CVNTL_25_41285_00119,,경기도 고양시 일산동구 강석로 9,경기도 고양시 일산동구 백석동 1293,,,,,,,,,,,케이티,,2022-07-11,,37.6443250000,126.7876740000
경기도,포천시,영북면,"41650390",생활편의형SOC,CVNTL,전기충전소,산정지 주차장,CVNTL_25_41650_01720,,경기도 포천시 영북면 산정호수로 409,경기도 포천시 영북면 산정리 451-3,,,,,,,,,,,환경부(한국자동차환경협회),,2022-07-11,,38.0660970000,127.3157800000
경기도,화성시,석우동,"41590128",생활편의형SOC,CVNTL,전기충전소,화성도쿄일렉트론코리아,CVNTL_25_41590_01829,,경기도 화성시 삼성1로1길 56,경기도 화성시 석우동 24-9,,,,,,,,,,,케이티,,2022-07-11,,37.2188340000,127.0706300000
경기도,김포시,풍무동,"41570107",생활편의형SOC,CVNTL,전기충전소,홈플러스 풍무점,CVNTL_25_41570_00372,,경기도 김포시 풍무로 167,경기도 김포시 풍무동 38-1,,,,,,,,,,,환경부(한국자동차환경협회),,2022-07-11,,37.6098860000,126.7236600000
경기도,화성시,우정읍,"41590256",생활편의형SOC,CVNTL,전기충전소,마이더스오토샵,CVNTL_25_41590_01870,,경기도 화성시 우정읍 바수게길 5,경기도 화성시 우정읍 주곡리 500-48,,,,,,,,,,,제주전기자동차서비스,,2022-07-11,,37.1106830000,126.8034200000
경기도,화성시,우정읍,"41590256",생활편의형SOC,CVNTL,전기충전소,주식회사 로이,CVNTL_25_41590_01871,,경기도 화성시 우정읍 포승향남로 969,경기도 화성시 우정읍 이화리 198-7,,,,,,,,,,,에버온,,2022-07-11,,37.0356980000,126.8054660000
경기도,양평군,옥천면,"41830340",생활편의형SOC,CVNTL,전기충전소,세븐일레븐 양평6번국도점,CVNTL_25_41830_01178,,경기도 양평군 옥천면 경강로 1519,경기도 양평군 옥천면 옥천리 872-3,,,,,,,,,,,제주전기자동차서비스,,2022-07-11,,37.5079460000,127.4515460000
경기도,화성시,정남면,"41590410",생활편의형SOC,CVNTL,전기충전소,정남면사무소,CVNTL_25_41590_01869,,경기도 화성시 정남면 서봉로 998,경기도 화성시 정남면 신리 260-1,,,,,,,,,,,한국전기차충전서비스,,2022-07-11,,37.1602300000,126.9718000000
경기도,화성시,청계동,"41590130",생활편의형SOC,CVNTL,전기충전소,관악 리베라CC,CVNTL_25_41590_01872,,경기도 화성시 중리길 183,경기도 화성시 청계동 510-385,,,,,,,,,,,이카플러그,,2022-07-11,,37.1905500000,127.1124300000
경기도,화성시,봉담읍,"41590253",생활편의형SOC,CVNTL,전기충전소,장안대학교,CVNTL_25_41590_01863,,경기도 화성시 봉담읍 삼천병마로 1182,경기도 화성시 봉담읍 상리 460,,,,,,,,,,,이카플러그,,2022-07-11,,37.2126460000,126.9460500000
경기도,화성시,봉담읍,"41590253",생활편의형SOC,CVNTL,전기충전소,봉담읍사무소,CVNTL_25_41590_01864,,경기도 화성시 봉담읍 샘마을1길 7,경기도 화성시 봉담읍 상리 27-1,,,,,,,,,,,한국전기차충전서비스,,2022-07-11,,37.2199900000,126.9500500000
경기도,화성시,반월동,"41590120",생활편의형SOC,CVNTL,전기충전소,롯데빅마켓 신영통점,CVNTL_25_41590_01865,,경기도 화성시 삼성1로 333,경기도 화성시 반월동 123-5,,,,,,,,,,,한국전기차충전서비스,,2022-07-11,,37.2304420000,127.0664700000
경기도,화성시,병점동,"41590117",생활편의형SOC,CVNTL,전기충전소,병점2동주민센터,CVNTL_25_41590_01866,,경기도 화성시 병점3로 99,경기도 화성시 병점동 834-1,,,,,,,,,,,에버온,,2022-07-11,,37.2115020000,127.0430600000
경기도,화성시,병점동,"41590117",생활편의형SOC,CVNTL,전기충전소,유앤아이센터,CVNTL_25_41590_01867,,경기도 화성시 태안로 145,경기도 화성시 병점동 734,,,,,,,,,,,환경부(한국자동차환경협회),,2022-07-11,,37.2031000000,127.0334300000
경기도,화성시,병점동,"41590117",생활편의형SOC,CVNTL,전기충전소,홈플러스 병점점,CVNTL_25_41590_01868,,경기도 화성시 경기대로 985,경기도 화성시 병점동 399-4,,,,,,,,,,,환경부(한국자동차환경협회),,2022-07-11,,37.2037470000,127.0367500000
경기도,남양주시,진접읍,"41360253",생활편의형SOC,CVNTL,전기충전소,이마트 진접점,CVNTL_25_41360_00419,,경기도 남양주시 진접읍 금강로유연들1길 154,경기도 남양주시 진접읍 연평리 101-14,,,,,,,,,,,한국전력,,2022-07-11,,37.7088360000,127.1820100000
경기도,고양시 일산동구,장항동,"41285104",생활편의형SOC,CVNTL,전기충전소,신성하이네트스 오피스텔,CVNTL_25_41285_00078,,경기도 고양시 일산동구 정발산로42번길 24,경기도 고양시 일산동구 장항동 854,,,,,,,,,,,케이티,,2022-07-11,,37.6559900000,126.7737660000
경기도,안성시,현수동,"41550131",생활편의형SOC,CVNTL,전기충전소,안성맞춤 아트홀,CVNTL_25_41550_00997,,"",경기도 안성시 현수동 58-3,,,,,,,,,,,시그넷이브이,,2022-07-11,,37.0014040000,127.2790450000
경기도,고양시 덕양구,행신동,"41281128",생활편의형SOC,CVNTL,전기충전소,행신제9공영주차장,CVNTL_25_41281_00055,,경기도 고양시 덕양구 소원로181번길 38,경기도 고양시 덕양구 행신동 805,,,,,,,,,,,한국전기차충전서비스,,2022-07-11,,37.6146160000,126.8433000000
경기도,안산시 단원구,와동,"41273102",생활편의형SOC,CVNTL,전기충전소,와동체육관,CVNTL_25_41273_00948,,경기도 안산시 단원구 화정천동로 396,경기도 안산시 단원구 와동 813,,,,,,,,,,,시그넷이브이,,2022-07-11,,37.3400080000,126.8189300000
경기도,수원시 장안구,이목동,"41111131",생활편의형SOC,CVNTL,전기충전소,STX KAN 1단지,CVNTL_25_41111_00797,,경기도 수원시 장안구 장안로 395,경기도 수원시 장안구 이목동 918,,,,,,,,,,,케이티,,2022-07-11,,37.3154140000,126.9822500000
경기도,성남시 중원구,상대원동,"41133105",생활편의형SOC,CVNTL,전기충전소,성남 스타타워관리단,CVNTL_25_41133_00686,,경기도 성남시 중원구 사기막골로62번길 37,경기도 성남시 중원구 상대원동 223-25,,,,,,,,,,,이카플러그,,2022-07-11,,37.4352530000,127.1760200000
경기도,여주시,홍문동,"41670102",생활편의형SOC,CVNTL,전기충전소,여주시 이마트(여주점),CVNTL_25_41670_01213,,경기도 여주시 세종로 151,경기도 여주시 홍문동 401,,,,,,,,,,,차지비,,2022-07-11,,37.2842670000,127.6356660000
경기도,남양주시,호평동,"41360101",생활편의형SOC,CVNTL,전기충전소,호평동우림아파트,CVNTL_25_41360_00389,,경기도 남양주시 늘을1로 75,경기도 남양주시 호평동 711,,,,,,,,,,,케이티,,2022-07-11,,37.6599730000,127.2390200000
경기도,남양주시,금곡동,"41360103",생활편의형SOC,CVNTL,전기충전소,한국국토정보공사 남양주구리지사,CVNTL_25_41360_00408,,경기도 남양주시 경춘로1015번길 5,경기도 남양주시 금곡동 158-63,,,,,,,,,,,대영채비,,2022-07-11,,37.6356350000,127.2138000000
경기도,부천시,상동,"41190109",생활편의형SOC,CVNTL,전기충전소,부천시 삼도갈비,CVNTL_25_41190_00534,,경기도 부천시 상이로85번길 32,경기도 부천시 상동 573-1,,,,,,,,,,,차지비,,2022-07-11,,37.4967230000,126.7426000000
경기도,남양주시,진건읍,"41360259",생활편의형SOC,CVNTL,전기충전소,기아자동차 진건대리점,CVNTL_25_41360_00429,,경기도 남양주시 진건읍 사릉로442번길 13,경기도 남양주시 진건읍 용정리 771-4,,,,,,,,,,,에스트래픽,,2022-07-11,,37.6585040000,127.1771100000
경기도,안산시 상록구,건건동,"41271111",생활편의형SOC,CVNTL,전기충전소,반월역환승주차장,CVNTL_25_41271_00983,,"",경기도 안산시 상록구 건건동 535-14,,,,,,,,,,,환경부(한국자동차환경협회),,2022-07-11,,37.3119240000,126.9042100000
경기도,부천시,심곡동,"41190102",생활편의형SOC,CVNTL,전기충전소,부천시_심곡1동주민센터,CVNTL_25_41190_00508,,경기도 부천시 장말로351번길 9,경기도 부천시 심곡동 427-6,,,,,,,,,,,한국전기차충전서비스,,2022-07-11,,37.4909250000,126.7806100000
경기도,부천시,오정동,"41190117",생활편의형SOC,CVNTL,전기충전소,오정산업단지 공영주차장,CVNTL_25_41190_00537,,경기도 부천시 산업로7번길 64,경기도 부천시 오정동 759,,,,,,,,,,,한국전기차충전서비스,,2022-07-11,,37.5305520000,126.7797600000
경기도,부천시,작동,"41190119",생활편의형SOC,CVNTL,전기충전소,물박물관,CVNTL_25_41190_00515,,경기도 부천시 길주로 691,경기도 부천시 작동 산 60-8,,,,,,,,,,,한국전기차충전서비스,,2022-07-11,,37.5078700000,126.8211000000
경기도,성남시 분당구,수내동,"41135102",생활편의형SOC,CVNTL,전기충전소,EV충전소 SK수내동주유소 (ev Most),CVNTL_25_41135_00551,,경기도 성남시 분당구 불정로 274,경기도 성남시 분당구 수내동 86,,,,,,,,,,,evMost,,2022-07-11,,37.3677000000,127.1282040000
경기도,부천시,상동,"41190109",생활편의형SOC,CVNTL,전기충전소,푸른마을창보아파트,CVNTL_25_41190_00467,,경기도 부천시 송내대로205번길 68,경기도 부천시 상동 551-1,,,,,,,,,,,케이티,,2022-07-11,,37.5027730000,126.7538150000
경기도,성남시 분당구,구미동,"41135114",생활편의형SOC,CVNTL,전기충전소,하나로마트 성남점,CVNTL_25_41135_00615,,경기도 성남시 분당구 성남대로43번길 11,경기도 성남시 분당구 구미동 174,,,,,,,,,,,환경부(한국자동차환경협회),,2022-07-11,,37.3387570000,127.1066700000
경기도,수원시 팔달구,인계동,"41115141",생활편의형SOC,CVNTL,전기충전소,인계동선경1차아파트,CVNTL_25_41115_00829,,경기도 수원시 팔달구 권광로317번길 12,경기도 수원시 팔달구 인계동 163,,,,,,,,,,,케이티,,2022-07-11,,37.2760770000,127.0366600000
경기도,수원시 장안구,연무동,"41111137",생활편의형SOC,CVNTL,전기충전소,수원시 연무동 주민센터,CVNTL_25_41111_00800,,경기도 수원시 장안구 경수대로 757,경기도 수원시 장안구 연무동 181-1,,,,,,,,,,,차지비,,2022-07-11,,37.2904360000,127.0215450000
경기도,수원시 장안구,연무동,"41111137",생활편의형SOC,CVNTL,전기충전소,경기남부지방경찰청,CVNTL_25_41111_00801,,경기도 수원시 장안구 창룡대로 223,경기도 수원시 장안구 연무동 산 11-2,,,,,,,,,,,에스트래픽,,2022-07-11,,37.2942200000,127.0337140000
경기도,성남시 분당구,구미동,"41135114",생활편의형SOC,CVNTL,전기충전소,성남시 구미1동행정복지센터,CVNTL_25_41135_00594,,경기도 성남시 분당구 돌마로90번길 8,경기도 성남시 분당구 구미동 26,,,,,,,,,,,차지비,,2022-07-11,,37.3492660000,127.1117500000
경기도,성남시 분당구,구미동,"41135114",생활편의형SOC,CVNTL,전기충전소,구미동 주민센터,CVNTL_25_41135_00595,,경기도 성남시 분당구 구미로 130,경기도 성남시 분당구 구미동 227,,,,,,,,,,,에버온,,2022-07-11,,37.3395040000,127.1208400000
경기도,양주시,장흥면,"41630340",생활편의형SOC,CVNTL,전기충전소,장흥유원지,CVNTL_25_41630_01161,,"",경기도 양주시 장흥면 석현리 386-2,,,,,,,,,,,한국전기차충전서비스,,2022-07-11,,37.7304730000,126.9496400000
경기도,수원시 영통구,원천동,"41117102",생활편의형SOC,CVNTL,전기충전소,홈플러스 원천점,CVNTL_25_41117_00748,,경기도 수원시 영통구 중부대로 437,경기도 수원시 영통구 원천동 177-1,,,,,,,,,,,한국전력,,2022-07-11,,37.2701030000,127.0636500000
경기도,가평군,상면,"41820330",생활편의형SOC,CVNTL,전기충전소,경기가평 스카이빌,CVNTL_25_41820_00021,,경기도 가평군 상면 수목원로386번길 14,경기도 가평군 상면 행현리 646,,,,,,,,,,,에버온,,2022-07-11,,37.7480600000,127.3517300000
경기도,가평군,상면,"41820330",생활편의형SOC,CVNTL,전기충전소,상면사무소,CVNTL_25_41820_00022,,경기도 가평군 상면 청군로 1105,경기도 가평군 상면 연하리 171-1,,,,,,,,,,,한국전력,,2022-07-11,,37.8047700000,127.3573000000
경기도,고양시 덕양구,신원동,"41281103",생활편의형SOC,CVNTL,전기충전소,고양시 현대블루핸즈온누리오토프로,CVNTL_25_41281_00058,,경기도 고양시 덕양구 권율대로 822,경기도 고양시 덕양구 신원동 666,,,,,,,,,,,차지비,,2022-07-11,,37.6595340000,126.8837360000
경기도,고양시 일산동구,백석동,"41285106",생활편의형SOC,CVNTL,전기충전소,비잔티움오피스텔2차관리단,CVNTL_25_41285_00132,,경기도 고양시 일산동구 호수로 340-28,경기도 고양시 일산동구 백석동 1318-4,,,,,,,,,,,케이티,,2022-07-11,,37.6381150000,126.7883700000
경기도,안산시 단원구,대부북동,"41273111",생활편의형SOC,CVNTL,전기충전소,안산 대부도서관 주차장,CVNTL_25_41273_00905,,경기도 안산시 단원구 대남로 30,경기도 안산시 단원구 대부북동 425-3,,,,,,,,,,,대영채비,,2022-07-11,,37.2404800000,126.5831200000
경기도,안산시 단원구,대부북동,"41273111",생활편의형SOC,CVNTL,전기충전소,안산 대부해양본부 주차장,CVNTL_25_41273_00906,,경기도 안산시 단원구 돈지섬1길 10,경기도 안산시 단원구 대부북동 1959-1,,,,,,,,,,,대영채비,,2022-07-11,,37.2718930000,126.5670300000
경기도,안산시 단원구,원시동,"41273105",생활편의형SOC,CVNTL,전기충전소,원시동 공영주차장,CVNTL_25_41273_00908,,"",경기도 안산시 단원구 원시동 778-6,,,,,,,,,,,한국전기차충전서비스,,2022-07-11,,37.3116340000,126.7920400000
경기도,광명시,철산동,"41210102",생활편의형SOC,CVNTL,전기충전소,광명경찰서,CVNTL_25_41210_00222,,경기도 광명시 디지털로 5,경기도 광명시 철산동 418,,,,,,,,,,,에스트래픽,,2022-07-11,,37.4740260000,126.8681500000
경기도,광명시,철산동,"41210102",생활편의형SOC,CVNTL,전기충전소,광명시 철산3동 주민센터,CVNTL_25_41210_00223,,경기도 광명시 철산로 56,경기도 광명시 철산동 449-1,,,,,,,,,,,차지비,,2022-07-11,,37.4770000000,126.8722100000
경기도,광명시,철산동,"41210102",생활편의형SOC,CVNTL,전기충전소,광명시청,CVNTL_25_41210_00224,,경기도 광명시 시청로 20,경기도 광명시 철산동 222-1,,,,,,,,,,,시그넷이브이,,2022-07-11,,37.4782100000,126.8647160000
경기도,광명시,철산동,"41210102",생활편의형SOC,CVNTL,전기충전소,광명시 광명시청,CVNTL_25_41210_00225,,경기도 광명시 시청로 20,경기도 광명시 철산동 222-1,,,,,,,,,,,차지비,,2022-07-11,,37.4782100000,126.8647160000
경기도,광명시,철산동,"41210102",생활편의형SOC,CVNTL,전기충전소,광명시 철산1동 주민센터,CVNTL_25_41210_00226,,경기도 광명시 사성로 121,경기도 광명시 철산동 9-141,,,,,,,,,,,차지비,,2022-07-11,,37.4908100000,126.8679000000
경기도,과천시,갈현동,"41290103",생활편의형SOC,CVNTL,전기충전소,갈현동 주민센터 주차장,CVNTL_25_41290_00184,,경기도 과천시 중앙로 28,경기도 과천시 갈현동 679,,,,,,,,,,,환경부(한국자동차환경협회),,2022-07-11,,37.4193760000,126.9891360000
경기도,남양주시,금곡동,"41360103",생활편의형SOC,CVNTL,전기충전소,남양주자동차㈜,CVNTL_25_41360_00406,,경기도 남양주시 금곡로 9,경기도 남양주시 금곡동 682-21,,,,,,,,,,,기아자동차,,2022-07-11,,37.6336670000,127.2039400000
경기도,안산시 단원구,고잔동,"41273101",생활편의형SOC,CVNTL,전기충전소,안산단원경찰서,CVNTL_25_41273_00941,,경기도 안산시 단원구 화랑로 373,경기도 안산시 단원구 고잔동 514,,,,,,,,,,,에스트래픽,,2022-07-11,,37.3216300000,126.8288650000
경기도,성남시 분당구,삼평동,"41135109",생활편의형SOC,CVNTL,전기충전소,호반메트로큐브오피스텔,CVNTL_25_41135_00560,,경기도 성남시 분당구 대왕판교로606번길 31,경기도 성남시 분당구 삼평동 647,,,,,,,,,,,케이티,,2022-07-11,,37.3966900000,127.1106800000
경기도,구리시,인창동,"41310103",생활편의형SOC,CVNTL,전기충전소,구리시 롯데아울렛(구리점),CVNTL_25_41310_00285,,경기도 구리시 동구릉로136번길 47,경기도 구리시 인창동 419-7,,,,,,,,,,,차지비,,2022-07-11,,37.6118600000,127.1405500000
경기도,군포시,당동,"41410101",생활편의형SOC,CVNTL,전기충전소,경기군포 비바체모텔,CVNTL_25_41410_00310,,경기도 군포시 군포역2길 28,경기도 군포시 당동 780-4,,,,,,,,,,,에버온,,2022-07-11,,37.3520770000,126.9470100000
경기도,안성시,양성면,"41550360",생활편의형SOC,CVNTL,전기충전소,교동골프존카운티,CVNTL_25_41550_01016,,경기도 안성시 양성면 교동길 19-70,경기도 안성시 양성면 동항리 25-1,,,,,,,,,,,케이티,,2022-07-11,,37.0726100000,127.1932900000
경기도,김포시,장기동,"41570104",생활편의형SOC,CVNTL,전기충전소,김포시 장기동주민센터,CVNTL_25_41570_00340,,경기도 김포시 김포한강2로 112,경기도 김포시 장기동 2055-2,,,,,,,,,,,지엔텔,,2022-07-11,,37.6397900000,126.6713260000
경기도,성남시 분당구,삼평동,"41135109",생활편의형SOC,CVNTL,전기충전소,판교테크노밸리 글로벌 R&D센터,CVNTL_25_41135_00567,,경기도 성남시 분당구 대왕판교로712번길 22,경기도 성남시 분당구 삼평동 696-1,,,,,,,,,,,한국전기차충전서비스,,2022-07-11,,37.4064830000,127.1020360000
경기도,안성시,일죽면,"41550390",생활편의형SOC,CVNTL,전기충전소,일죽면사무소,CVNTL_25_41550_01037,,경기도 안성시 일죽면 금일로 433,경기도 안성시 일죽면 송천리 253-1,,,,,,,,,,,시그넷이브이,,2022-07-11,,37.0905600000,127.4770360000
경기도,안성시,죽산면,"41550400",생활편의형SOC,CVNTL,전기충전소,세븐일레븐 안성죽산녹박점,CVNTL_25_41550_01040,,경기도 안성시 죽산면 서동대로 6518,경기도 안성시 죽산면 장능리 660-5,,,,,,,,,,,한국전기차충전서비스,,2022-07-11,,37.0687900000,127.3816100000
경기도,안성시,미양면,"41550340",생활편의형SOC,CVNTL,전기충전소,미양면사무소,CVNTL_25_41550_01060,,경기도 안성시 미양면 양지길 29,경기도 안성시 미양면 양지리 190,,,,,,,,,,,한국전기차충전서비스,,2022-07-11,,36.9751900000,127.2150960000
경기도,안양시 만안구,안양동,"41171101",생활편의형SOC,CVNTL,전기충전소,만안구청,CVNTL_25_41171_01103,,경기도 안양시 만안구 안양로 128,경기도 안양시 만안구 안양동 530,,,,,,,,,,,환경부(한국자동차환경협회),,2022-07-11,,37.3865800000,126.9323000000
경기도,성남시 분당구,서현동,"41135105",생활편의형SOC,CVNTL,전기충전소,롯데마트 서현점,CVNTL_25_41135_00545,,경기도 성남시 분당구 황새울로311번길 28,경기도 성남시 분당구 서현동 275,,,,,,,,,,,환경부(한국자동차환경협회),,2022-07-11,,37.3860320000,127.1206300000
경기도,양주시,덕정동,"41630110",생활편의형SOC,CVNTL,전기충전소,양주시 회천3동주민센터 ,CVNTL_25_41630_01132,,경기도 양주시 회정로 143,경기도 양주시 덕정동 206-6,,,,,,,,,,,지엔텔,,2022-07-11,,37.8377570000,127.0686900000
경기도,성남시 분당구,삼평동,"41135109",생활편의형SOC,CVNTL,전기충전소,삼성화재 판교사옥,CVNTL_25_41135_00568,,경기도 성남시 분당구 판교역로 188,경기도 성남시 분당구 삼평동 642,,,,,,,,,,,에스트래픽,,2022-07-11,,37.3974500000,127.1100600000
경기도,성남시 분당구,야탑동,"41135107",생활편의형SOC,CVNTL,전기충전소,대우분당서비스,CVNTL_25_41135_00571,,경기도 성남시 분당구 탄천로 257,경기도 성남시 분당구 야탑동 403,,,,,,,,,,,케이티,,2022-07-11,,37.4145600000,127.1193100000
경기도,성남시 분당구,야탑동,"41135107",생활편의형SOC,CVNTL,전기충전소,성남시 평생학습원,CVNTL_25_41135_00572,,경기도 성남시 분당구 판교로 546,경기도 성남시 분당구 야탑동 610,,,,,,,,,,,에스트래픽,,2022-07-11,,37.4045640000,127.1345750000
경기도,성남시 분당구,구미동,"41135114",생활편의형SOC,CVNTL,전기충전소,현대노블리스,CVNTL_25_41135_00588,,경기도 성남시 분당구 금곡로 171,경기도 성남시 분당구 구미동 82,,,,,,,,,,,한국전기차충전서비스,,2022-07-11,,37.3500250000,127.1192860000
경기도,성남시 분당구,삼평동,"41135109",생활편의형SOC,CVNTL,전기충전소,포스코ICT 판교,CVNTL_25_41135_00561,,경기도 성남시 분당구 판교로 255,경기도 성남시 분당구 삼평동 622,,,,,,,,,,,차지비,,2022-07-11,,37.4042700000,127.1024900000
경기도,성남시 분당구,정자동,"41135103",생활편의형SOC,CVNTL,전기충전소,정자전원마을공영주차장,CVNTL_25_41135_00608,,경기도 성남시 분당구 불곡로13번길 6,경기도 성남시 분당구 정자동 239-1,,,,,,,,,,,에스트래픽,,2022-07-11,,37.3591460000,127.1244900000
경기도,성남시 수정구,복정동,"41131107",생활편의형SOC,CVNTL,전기충전소,가천대 글로벌캠퍼스,CVNTL_25_41131_00640,,경기도 성남시 수정구 성남대로 1342,경기도 성남시 수정구 복정동 620-2,,,,,,,,,,,한국전력,,2022-07-11,,37.4520900000,127.1295600000
경기도,의왕시,내손동,"41430107",생활편의형SOC,CVNTL,전기충전소,갈미한글공원,CVNTL_25_41430_01418,,경기도 의왕시 문화예술로 65,경기도 의왕시 내손동 228-1,,,,,,,,,,,한국전기차충전서비스,,2022-07-11,,37.3779700000,126.9849550000
경기도,용인시 기흥구,중동,"41463116",생활편의형SOC,CVNTL,전기충전소,참솔마을 월드메르디앙아파트,CVNTL_25_41463_01271,,경기도 용인시 기흥구 동백죽전대로 283,경기도 용인시 기흥구 중동 819,,,,,,,,,,,케이티,,2022-07-11,,37.2647700000,127.1537400000
경기도,용인시 기흥구,중동,"41463116",생활편의형SOC,CVNTL,전기충전소,용인시청 동백동주민센터,CVNTL_25_41463_01272,,경기도 용인시 기흥구 동백중앙로 214,경기도 용인시 기흥구 중동 866-1,,,,,,,,,,,지엔텔,,2022-07-11,,37.2725330000,127.1516800000
경기도,용인시 기흥구,중동,"41463116",생활편의형SOC,CVNTL,전기충전소,용인시 현대블루핸즈(구성서비스),CVNTL_25_41463_01273,,경기도 용인시 기흥구 동백죽전대로527번길 98-25,경기도 용인시 기흥구 중동 1112-7,,,,,,,,,,,차지비,,2022-07-11,,37.2827870000,127.1425550000
경기도,용인시 기흥구,중동,"41463116",생활편의형SOC,CVNTL,전기충전소,동백동주민센터,CVNTL_25_41463_01274,,경기도 용인시 기흥구 동백중앙로 214,경기도 용인시 기흥구 중동 866-1,,,,,,,,,,,한국전기차충전서비스,,2022-07-11,,37.2725330000,127.1516800000
경기도,용인시 기흥구,중동,"41463116",생활편의형SOC,CVNTL,전기충전소,이마트 동백점,CVNTL_25_41463_01275,,경기도 용인시 기흥구 동백죽전대로 444,경기도 용인시 기흥구 중동 833,,,,,,,,,,,한국전력,,2022-07-11,,37.2780840000,127.1516200000
경기도,용인시 기흥구,중동,"41463116",생활편의형SOC,CVNTL,전기충전소,기흥 광림남교회,CVNTL_25_41463_01276,,경기도 용인시 기흥구 동백죽전대로 245,경기도 용인시 기흥구 중동 419-1,,,,,,,,,,,이카플러그,,2022-07-11,,37.2632400000,127.1561500000
경기도,성남시 중원구,성남동,"41133101",생활편의형SOC,CVNTL,전기충전소,성남시 성남동 행정복지센터,CVNTL_25_41133_00663,,경기도 성남시 중원구 광명로 89,경기도 성남시 중원구 성남동 1404,,,,,,,,,,,차지비,,2022-07-11,,37.4351000000,127.1384700000
경기도,수원시 권선구,곡반정동,"41113136",생활편의형SOC,CVNTL,전기충전소,수원시 곡선동 주민센터,CVNTL_25_41113_00721,,경기도 수원시 권선구 동수원로146번길 174,경기도 수원시 권선구 곡반정동 525,,,,,,,,,,,차지비,,2022-07-11,,37.2432600000,127.0332950000
경기도,수원시 영통구,원천동,"41117102",생활편의형SOC,CVNTL,전기충전소,수원시 원천동 주민센터,CVNTL_25_41117_00747,,경기도 수원시 영통구 중부대로 339,경기도 수원시 영통구 원천동 610,,,,,,,,,,,차지비,,2022-07-11,,37.2734830000,127.0532900000
경기도,의왕시,포일동,"41430109",생활편의형SOC,CVNTL,전기충전소,스마일타워,CVNTL_25_41430_01414,,경기도 의왕시 안양판교로 99,경기도 의왕시 포일동 661,,,,,,,,,,,한국전기차충전서비스,,2022-07-11,,37.3956000000,126.9851460000
경기도,의왕시,내손동,"41430107",생활편의형SOC,CVNTL,전기충전소,의왕내손우미린아파트,CVNTL_25_41430_01415,,경기도 의왕시 내손순환로 4,경기도 의왕시 내손동 843,,,,,,,,,,,케이티,,2022-07-11,,37.3877600000,126.9746900000
경기도,의정부시,장암동,"41150103",생활편의형SOC,CVNTL,전기충전소,장암주유소,CVNTL_25_41150_01478,,경기도 의정부시 동일로 30,경기도 의정부시 장암동 380-30,,,,,,,,,,,환경부(한국자동차환경협회),,2022-07-11,,37.6920470000,127.0554800000
경기도,이천시,중리동,"41500103",생활편의형SOC,CVNTL,전기충전소,이천시 종합복지타운,CVNTL_25_41500_01504,,경기도 이천시 남천로 31,경기도 이천시 중리동 187,,,,,,,,,,,대영채비,,2022-07-11,,37.2780650000,127.4409700000
경기도,이천시,중리동,"41500103",생활편의형SOC,CVNTL,전기충전소,이천시 중리동 주민센터,CVNTL_25_41500_01505,,경기도 이천시 남천로 31,경기도 이천시 중리동 187,,,,,,,,,,,차지비,,2022-07-11,,37.2780650000,127.4409700000
경기도,안산시 단원구,원곡동,"41273108",생활편의형SOC,CVNTL,전기충전소,안산시청 백운동복합청사,CVNTL_25_41273_00923,,경기도 안산시 단원구 원선로 31,경기도 안산시 단원구 원곡동 821-1,,,,,,,,,,,대영채비,,2022-07-11,,37.3280830000,126.7970500000
경기도,파주시,문산읍,"41480250",생활편의형SOC,CVNTL,전기충전소,파주차량등록사업소,CVNTL_25_41480_01553,,경기도 파주시 문산읍 개포래로 48,경기도 파주시 문산읍 문산리 31-44,,,,,,,,,,,한국전기차충전서비스,,2022-07-11,,37.8537900000,126.7828400000
경기도,용인시 기흥구,상갈동,"41463103",생활편의형SOC,CVNTL,전기충전소,상갈동주민센터,CVNTL_25_41463_01302,,경기도 용인시 기흥구 상갈로 2,경기도 용인시 기흥구 상갈동 472-1,,,,,,,,,,,에버온,,2022-07-11,,37.2665520000,127.1076660000
경기도,평택시,고덕동,"41220128",생활편의형SOC,CVNTL,전기충전소,고덕면행정복지센터,CVNTL_25_41220_01627,,경기도 평택시 고덕면 고덕로 283,경기도 평택시 고덕면 좌교리 387-25,,,,,,,,,,,에버온,,2022-07-11,,37.0423770000,127.0177600000
경기도,평택시,용이동,"41220124",생활편의형SOC,CVNTL,전기충전소,평택대학교,CVNTL_25_41220_01629,,경기도 평택시 서동대로 3825,경기도 평택시 용이동 111,,,,,,,,,,,한국전기차충전서비스,,2022-07-11,,36.9951360000,127.1329650000
경기도,평택시,평택동,"41220113",생활편의형SOC,CVNTL,전기충전소,평택시 로그인모텔,CVNTL_25_41220_01631,,경기도 평택시 평택로39번길 17-5,경기도 평택시 평택동 185-286,,,,,,,,,,,차지비,,2022-07-11,,36.9901580000,127.0869900000
경기도,평택시,지산동,"41220110",생활편의형SOC,CVNTL,전기충전소,지산동주민센터,CVNTL_25_41220_01632,,경기도 평택시 송탄로 379,경기도 평택시 지산동 798-4,,,,,,,,,,,에버온,,2022-07-11,,37.0773800000,127.0575700000
경기도,평택시,지산동,"41220110",생활편의형SOC,CVNTL,전기충전소,송북동주민센터,CVNTL_25_41220_01633,,경기도 평택시 지산2로 113,경기도 평택시 지산동 1011,,,,,,,,,,,에버온,,2022-07-11,,37.0816400000,127.0601600000
경기도,평택시,안중읍,"41220253",생활편의형SOC,CVNTL,전기충전소,평택시 안중출장소,CVNTL_25_41220_01645,,경기도 평택시 안중읍 서동대로 1531,경기도 평택시 안중읍 학현리 572,,,,,,,,,,,한국전기차충전서비스,,2022-07-11,,36.9898260000,126.9197160000
경기도,안성시,죽산면,"41550400",생활편의형SOC,CVNTL,전기충전소,㈜안성내츄럴리조트,CVNTL_25_41550_01039,,경기도 안성시 죽산면 죽양대로 136-17,경기도 안성시 죽산면 매산리 251,,,,,,,,,,,환경부(한국자동차환경협회),,2022-07-11,,37.0947570000,127.4384100000
경기도,안양시 동안구,호계동,"41173104",생활편의형SOC,CVNTL,전기충전소,안양국제유통단지관리단,CVNTL_25_41173_01074,,경기도 안양시 동안구 엘에스로 92,경기도 안양시 동안구 호계동 555-9,,,,,,,,,,,지엔텔,,2022-07-11,,37.3719140000,126.9506700000
경기도,안양시 동안구,비산동,"41173101",생활편의형SOC,CVNTL,전기충전소,안양동안경찰서,CVNTL_25_41173_01098,,경기도 안양시 동안구 동안로159번길 43,경기도 안양시 동안구 비산동 1105,,,,,,,,,,,에스트래픽,,2022-07-11,,37.3911170000,126.9486850000
경기도,포천시,군내면,"41650310",생활편의형SOC,CVNTL,전기충전소,군내면사무소,CVNTL_25_41650_01709,,경기도 포천시 군내면 청군로3290번길 16,경기도 포천시 군내면 구읍리 192-1,,,,,,,,,,,에버온,,2022-07-11,,37.8889920000,127.2177800000
경기도,포천시,군내면,"41650310",생활편의형SOC,CVNTL,전기충전소,포천총합체육관,CVNTL_25_41650_01710,,경기도 포천시 군내면 호국로 1518,경기도 포천시 군내면 구읍리 691,,,,,,,,,,,한국전력,,2022-07-11,,37.8884350000,127.2008300000
경기도,양주시,은현면,"41630310",생활편의형SOC,CVNTL,전기충전소,선암리 동네체육시설(선암2리 경로당),CVNTL_25_41630_01126,,경기도 양주시 은현면 화합로941번길 336,경기도 양주시 은현면 선암리 196-16,,,,,,,,,,,에스트래픽,,2022-07-11,,37.8618500000,127.0285400000
경기도,양주시,은현면,"41630310",생활편의형SOC,CVNTL,전기충전소,하패리 동네체육시설(하패1리 복지회관),CVNTL_25_41630_01127,,경기도 양주시 은현면 운하로433번길 5,경기도 양주시 은현면 하패리 349,,,,,,,,,,,에스트래픽,,2022-07-11,,37.8881230000,127.0360100000
경기도,양주시,은현면,"41630310",생활편의형SOC,CVNTL,전기충전소,양주시 은현면사무소,CVNTL_25_41630_01128,,경기도 양주시 은현면 은현로 66,경기도 양주시 은현면 선암리 341-2,,,,,,,,,,,지엔텔,,2022-07-11,,37.8750000000,127.0245800000
경기도,양주시,광적면,"41630330",생활편의형SOC,CVNTL,전기충전소,광적가석지구 공영주차장,CVNTL_25_41630_01144,,"",경기도 양주시 광적면 가납리 870-5,,,,,,,,,,,한국전기차충전서비스,,2022-07-11,,37.8212200000,126.9864600000
경기도,양주시,광적면,"41630330",생활편의형SOC,CVNTL,전기충전소,가납공영주차장,CVNTL_25_41630_01145,,경기도 양주시 광적면 삼일로 20,경기도 양주시 광적면 가납리 709-38,,,,,,,,,,,한국전력,,2022-07-11,,37.8206980000,126.9874340000
경기도,양평군,양평읍,"41830250",생활편의형SOC,CVNTL,전기충전소,양평군 대명 양평리조트,CVNTL_25_41830_01172,,경기도 양평군 개군면 신내길7번길 55,경기도 양평군 개군면 공세리 389-7,,,,,,,,,,,차지비,,2022-07-11,,37.4692700000,127.5323300000
경기도,양평군,양평읍,"41830250",생활편의형SOC,CVNTL,전기충전소,한국국토정보공사 양평지사,CVNTL_25_41830_01173,,경기도 양평군 양평읍 양근로 127,경기도 양평군 양평읍 양근리 528-22,,,,,,,,,,,대영채비,,2022-07-11,,37.4942440000,127.4865700000
경기도,안산시 단원구,와동,"41273102",생활편의형SOC,CVNTL,전기충전소,안산시 안산시배드민턴전용경기장,CVNTL_25_41273_00947,,경기도 안산시 단원구 순환로 416,경기도 안산시 단원구 와동 95-3,,,,,,,,,,,지엔텔,,2022-07-11,,37.3432540000,126.8345800000
경기도,화성시,향남읍,"41590259",생활편의형SOC,CVNTL,전기충전소,대웅제약,CVNTL_25_41590_01854,,경기도 화성시 향남읍 제약공단4길 35-14,경기도 화성시 향남읍 상신리 906-10,,,,,,,,,,,한국전기차충전서비스,,2022-07-11,,37.0878260000,126.9053800000
경기도,양평군,개군면,"41830410",생활편의형SOC,CVNTL,전기충전소,개군면복지회관,CVNTL_25_41830_01193,,경기도 양평군 개군면 추읍로 37,경기도 양평군 개군면 부리 444-1,,,,,,,,,,,환경부(한국자동차환경협회),,2022-07-11,,37.4282200000,127.5422400000
경기도,포천시,영북면,"41650390",생활편의형SOC,CVNTL,전기충전소,산정호수 상동주차장,CVNTL_25_41650_01721,,"",경기도 포천시 영북면 산정리 75-5,,,,,,,,,,,한국전기차충전서비스,,2022-07-11,,38.0677760000,127.3252300000
경기도,파주시,적성면,"41480370",생활편의형SOC,CVNTL,전기충전소,파주시 적성면주민센터,CVNTL_25_41480_01569,,경기도 파주시 적성면 청송로 1013,경기도 파주시 적성면 마지리 48-1,,,,,,,,,,,지엔텔,,2022-07-11,,37.9542900000,126.9176100000
경기도,포천시,영북면,"41650390",생활편의형SOC,CVNTL,전기충전소,산비탈,CVNTL_25_41650_01735,,경기도 포천시 영북면 산정호수로 295,경기도 포천시 영북면 산정리 528-13,,,,,,,,,,,한국전기차충전서비스,,2022-07-11,,38.0705300000,127.3046500000
경기도,오산시,수청동,"41370108",생활편의형SOC,CVNTL,전기충전소,홈플러스 오산점,CVNTL_25_41370_01238,,경기도 오산시 청학로 238,경기도 오산시 수청동 610,,,,,,,,,,,환경부(한국자동차환경협회),,2022-07-11,,37.1701400000,127.0617800000
경기도,파주시,목동동,"41480117",생활편의형SOC,CVNTL,전기충전소,산내마을2단지센트럴리움204동,CVNTL_25_41480_01592,,경기도 파주시 교하로 50,경기도 파주시 목동동 907,,,,,,,,,,,케이티,,2022-07-11,,37.7311020000,126.7304700000
경기도,오산시,세교동,"41370113",생활편의형SOC,CVNTL,전기충전소,세마동행정복지센터,CVNTL_25_41370_01240,,경기도 오산시 독산성로 419,경기도 오산시 세교동 595-2,,,,,,,,,,,에버온,,2022-07-11,,37.1883000000,127.0408200000
경기도,오산시,내삼미동,"41370110",생활편의형SOC,CVNTL,전기충전소,화성오산교육지원청,CVNTL_25_41370_01241,,경기도 오산시 북삼미로 119,경기도 오산시 내삼미동 715,,,,,,,,,,,한국전기차충전서비스,,2022-07-11,,37.1859440000,127.0616300000
경기도,용인시 기흥구,언남동,"41463112",생활편의형SOC,CVNTL,전기충전소,구성동주민센터,CVNTL_25_41463_01263,,경기도 용인시 기흥구 구성로77번길 17,경기도 용인시 기흥구 언남동 342-1,,,,,,,,,,,에버온,,2022-07-11,,37.2965500000,127.1185800000
경기도,용인시 기흥구,신갈동,"41463101",생활편의형SOC,CVNTL,전기충전소,신갈동주민센터,CVNTL_25_41463_01265,,경기도 용인시 기흥구 신갈로58번길 11,경기도 용인시 기흥구 신갈동 60-3,,,,,,,,,,,한국전력,,2022-07-11,,37.2725370000,127.1068300000
경기도,오산시,벌음동,"41370117",생활편의형SOC,CVNTL,전기충전소,초평동 행정복지센터,CVNTL_25_41370_01258,,경기도 오산시 발안로 1308-9,경기도 오산시 벌음동 243-1,,,,,,,,,,,에버온,,2022-07-11,,37.1398470000,127.0406650000
경기도,광명시,철산동,"41210102",생활편의형SOC,CVNTL,전기충전소,롯데아파트,CVNTL_25_41210_00217,,경기도 광명시 사성로 123,경기도 광명시 철산동 627,,,,,,,,,,,케이티,,2022-07-11,,37.4918980000,126.8673860000
경기도,성남시 분당구,삼평동,"41135109",생활편의형SOC,CVNTL,전기충전소,성남시 삼평동주민센터,CVNTL_25_41135_00562,,경기도 성남시 분당구 동판교로266번길 7,경기도 성남시 분당구 삼평동 712,,,,,,,,,,,차지비,,2022-07-11,,37.4061300000,127.1163000000
경기도,성남시 분당구,삼평동,"41135109",생활편의형SOC,CVNTL,전기충전소,성남시 NS홈쇼핑 별관,CVNTL_25_41135_00563,,경기도 성남시 분당구 대왕판교로645번길 36,경기도 성남시 분당구 삼평동 632,,,,,,,,,,,차지비,,2022-07-11,,37.4003830000,127.1020800000
경기도,성남시 분당구,삼평동,"41135109",생활편의형SOC,CVNTL,전기충전소,넥슨코리아,CVNTL_25_41135_00564,,경기도 성남시 분당구 판교로256번길 7,경기도 성남시 분당구 삼평동 627,,,,,,,,,,,한국전기차충전서비스,,2022-07-11,,37.4019970000,127.1035000000
경기도,성남시 분당구,삼평동,"41135109",생활편의형SOC,CVNTL,전기충전소,한국지역난방공사 판교가압장,CVNTL_25_41135_00565,,경기도 성남시 분당구 대왕판교로644번길 68,경기도 성남시 분당구 삼평동 732,,,,,,,,,,,한국전기차충전서비스,,2022-07-11,,37.3995900000,127.1142040000
경기도,성남시 분당구,삼평동,"41135109",생활편의형SOC,CVNTL,전기충전소,에이텍 빌딩,CVNTL_25_41135_00566,,경기도 성남시 분당구 판교로 289,경기도 성남시 분당구 삼평동 694,,,,,,,,,,,에버온,,2022-07-11,,37.4035500000,127.1061000000
경기도,성남시 분당구,야탑동,"41135107",생활편의형SOC,CVNTL,전기충전소,야탑역 제1환승공영주차장,CVNTL_25_41135_00573,,경기도 성남시 분당구 성남대로 920,경기도 성남시 분당구 야탑동 364-2,,,,,,,,,,,에스트래픽,,2022-07-11,,37.4117970000,127.1292200000
경기도,성남시 분당구,야탑동,"41135107",생활편의형SOC,CVNTL,전기충전소,성남시 야탑2동행정복지센터,CVNTL_25_41135_00574,,경기도 성남시 분당구 야탑로76번길 5,경기도 성남시 분당구 야탑동 508,,,,,,,,,,,차지비,,2022-07-11,,37.4094280000,127.1273800000
경기도,성남시 분당구,야탑동,"41135107",생활편의형SOC,CVNTL,전기충전소,성남시 야탑3동 주민센터,CVNTL_25_41135_00575,,경기도 성남시 분당구 야탑로167번길 12,경기도 성남시 분당구 야탑동 307,,,,,,,,,,,차지비,,2022-07-11,,37.4108300000,127.1379600000
경기도,성남시 분당구,야탑동,"41135107",생활편의형SOC,CVNTL,전기충전소,성남시 차량등록사업소,CVNTL_25_41135_00576,,경기도 성남시 분당구 야탑로 327,경기도 성남시 분당구 야탑동 135-5,,,,,,,,,,,차지비,,2022-07-11,,37.4072400000,127.1538900000
경기도,안성시,가사동,"41550126",생활편의형SOC,CVNTL,전기충전소,한국국토정보공사 안성지사,CVNTL_25_41550_01043,,경기도 안성시 보개원삼로 47,경기도 안성시 가사동 123-2,,,,,,,,,,,대영채비,,2022-07-11,,37.0089340000,127.2832300000
경기도,용인시 처인구,원삼면,"41461340",생활편의형SOC,CVNTL,전기충전소,용인시 농업기술센터,CVNTL_25_41461_01347,,경기도 용인시 처인구 원삼면 농촌파크로 80,경기도 용인시 처인구 원삼면 사암리 858-1,,,,,,,,,,,한국전기차충전서비스,,2022-07-11,,37.1726260000,127.2990340000
경기도,용인시 처인구,원삼면,"41461340",생활편의형SOC,CVNTL,전기충전소,블루원용인지점,CVNTL_25_41461_01348,,경기도 용인시 처인구 원삼면 보개원삼로1534번길 40,경기도 용인시 처인구 원삼면 목신리 356-10,,,,,,,,,,,케이티,,2022-07-11,,37.1292880000,127.3181840000
경기도,용인시 처인구,김량장동,"41461101",생활편의형SOC,CVNTL,전기충전소,용인시 처인구청부설주차장,CVNTL_25_41461_01354,,경기도 용인시 처인구 금령로 50,경기도 용인시 처인구 김량장동 286,,,,,,,,,,,지엔텔,,2022-07-11,,37.2343860000,127.2017300000
경기도,용인시 수지구,죽전동,"41465102",생활편의형SOC,CVNTL,전기충전소,이마트 죽전점(지상6층 주차장),CVNTL_25_41465_01320,,경기도 용인시 수지구 포은대로 552,경기도 용인시 수지구 죽전동 1282,,,,,,,,,,,에스트래픽,,2022-07-11,,37.3253100000,127.1099850000
경기도,용인시 수지구,죽전동,"41465102",생활편의형SOC,CVNTL,전기충전소,죽전1동주민센터,CVNTL_25_41465_01321,,경기도 용인시 수지구 대지로15번길 50,경기도 용인시 수지구 죽전동 1070-9,,,,,,,,,,,에버온,,2022-07-11,,37.3309700000,127.1139700000
경기도,안양시 만안구,박달동,"41171103",생활편의형SOC,CVNTL,전기충전소,박달우성아파트,CVNTL_25_41171_01102,,경기도 안양시 만안구 박달로498번길 38,경기도 안양시 만안구 박달동 85,,,,,,,,,,,케이티,,2022-07-11,,37.4008800000,126.9082950000
경기도,고양시 덕양구,원흥동,"41281104",생활편의형SOC,CVNTL,전기충전소,한양파인컨트리클럽,CVNTL_25_41281_00046,,경기도 고양시 덕양구 고양대로 1591,경기도 고양시 덕양구 성사동 291,,,,,,,,,,,케이티,,2022-07-11,,37.6514500000,126.8608200000
경기도,평택시,신장동,"41220112",생활편의형SOC,CVNTL,전기충전소,송탄역 공영주차장,CVNTL_25_41220_01637,,경기도 평택시 탄현1로 176,경기도 평택시 신장동 263-169,,,,,,,,,,,환경부(한국자동차환경협회),,2022-07-11,,37.0755770000,127.0538800000
경기도,광명시,철산동,"41210102",생활편의형SOC,CVNTL,전기충전소,광명시 철산2동 주민센터,CVNTL_25_41210_00218,,경기도 광명시 시청로 94,경기도 광명시 철산동 154,,,,,,,,,,,차지비,,2022-07-11,,37.4846880000,126.8666200000
경기도,고양시 일산동구,백석동,"41285106",생활편의형SOC,CVNTL,전기충전소,백석2공영주차장,CVNTL_25_41285_00107,,경기도 고양시 일산동구 장백로 15-7,경기도 고양시 일산동구 백석동 1315,,,,,,,,,,,한국전기차충전서비스,,2022-07-11,,37.6396300000,126.7893750000
경기도,고양시 덕양구,주교동,"41281101",생활편의형SOC,CVNTL,전기충전소,고양 우인아파트,CVNTL_25_41281_00061,,경기도 고양시 덕양구 마상로57번길 110,경기도 고양시 덕양구 주교동 1633,,,,,,,,,,,케이티,,2022-07-11,,37.6653330000,126.8346700000
경기도,고양시 일산동구,성석동,"41285113",생활편의형SOC,CVNTL,전기충전소,주식회사 승일,CVNTL_25_41285_00096,,경기도 고양시 일산동구 마골1길 14-9,경기도 고양시 일산동구 성석동 532-1,,,,,,,,,,,에버온,,2022-07-11,,37.7073900000,126.8068850000
경기도,화성시,석우동,"41590128",생활편의형SOC,CVNTL,전기충전소,화성시 이마트(동탄점),CVNTL_25_41590_01832,,경기도 화성시 동탄중앙로 376,경기도 화성시 석우동 44,,,,,,,,,,,차지비,,2022-07-11,,37.2146400000,127.0798400000
경기도,고양시 일산동구,백석동,"41285106",생활편의형SOC,CVNTL,전기충전소,아름다운자전거,CVNTL_25_41285_00108,,경기도 고양시 일산동구 장항로 3,경기도 고양시 일산동구 백석동 503-19,,,,,,,,,,,제주전기자동차서비스,,2022-07-11,,37.6318740000,126.7932900000
경기도,고양시 일산동구,백석동,"41285106",생활편의형SOC,CVNTL,전기충전소,백석동성우아뜨리움,CVNTL_25_41285_00109,,경기도 고양시 일산동구 장백로 13,경기도 고양시 일산동구 백석동 1314,,,,,,,,,,,케이티,,2022-07-11,,37.6395800000,126.7897640000
경기도,평택시,평택동,"41220113",생활편의형SOC,CVNTL,전기충전소,평택 롯데 인벤스스카이아파트,CVNTL_25_41220_01630,,경기도 평택시 평택로 17,경기도 평택시 평택동 316,,,,,,,,,,,케이티,,2022-07-11,,36.9885330000,127.0890500000
경기도,광명시,하안동,"41210103",생활편의형SOC,CVNTL,전기충전소,광명시 하안1동 주민센터,CVNTL_25_41210_00197,,경기도 광명시 오리로 747,경기도 광명시 하안동 684-2,,,,,,,,,,,차지비,,2022-07-11,,37.4651450000,126.8692250000
경기도,광명시,소하동,"41210104",생활편의형SOC,CVNTL,전기충전소,광명시 오리서원,CVNTL_25_41210_00205,,경기도 광명시 오리로 287,경기도 광명시 소하동 1055-3,,,,,,,,,,,지엔텔,,2022-07-11,,37.4284970000,126.8804800000
경기도,고양시 덕양구,주교동,"41281101",생활편의형SOC,CVNTL,전기충전소,고양시 호텔첼시,CVNTL_25_41281_00063,,경기도 고양시 덕양구 고양대로 1325,경기도 고양시 덕양구 주교동 606-10,,,,,,,,,,,차지비,,2022-07-11,,37.6564330000,126.8315800000
경기도,부천시,소사본동,"41190110",생활편의형SOC,CVNTL,전기충전소,소사주공1단지아파트,CVNTL_25_41190_00482,,경기도 부천시 소사로78번길 70,경기도 부천시 소사본동 401-3,,,,,,,,,,,케이티,,2022-07-11,,37.4683270000,126.8017800000
경기도,고양시 일산서구,일산동,"41287101",생활편의형SOC,CVNTL,전기충전소,후곡동신아파트,CVNTL_25_41287_00172,,경기도 고양시 일산서구 후곡로 11,경기도 고양시 일산서구 일산동 1057,,,,,,,,,,,케이티,,2022-07-11,,37.6786080000,126.7617600000
경기도,부천시,도당동,"41190104",생활편의형SOC,CVNTL,전기충전소,부천시_도당동주민센터,CVNTL_25_41190_00470,,경기도 부천시 평천로849번길 26-7,경기도 부천시 도당동 35-3,,,,,,,,,,,한국전기차충전서비스,,2022-07-11,,37.5163150000,126.7859340000
경기도,고양시 일산서구,탄현동,"41287103",생활편의형SOC,CVNTL,전기충전소,헤센스마트오피스텔,CVNTL_25_41287_00174,,경기도 고양시 일산서구 일현로41번길 16,경기도 고양시 일산서구 탄현동 1559-1,,,,,,,,,,,제주전기자동차서비스,,2022-07-11,,37.6914500000,126.7617200000
경기도,고양시 일산서구,탄현동,"41287103",생활편의형SOC,CVNTL,전기충전소,탄현제3공영주차장,CVNTL_25_41287_00175,,경기도 고양시 일산서구 탄중로 244-2,경기도 고양시 일산서구 탄현동 1589,,,,,,,,,,,한국전기차충전서비스,,2022-07-11,,37.6927760000,126.7723300000
경기도,고양시 일산서구,일산동,"41287101",생활편의형SOC,CVNTL,전기충전소,일산쌍용아파트,CVNTL_25_41287_00173,,경기도 고양시 일산서구 탄중로 447,경기도 고양시 일산서구 일산동 576-4,,,,,,,,,,,케이티,,2022-07-11,,37.6868630000,126.7765100000
경기도,김포시,북변동,"41570101",생활편의형SOC,CVNTL,전기충전소,김포시 김포본동 행정복지센터,CVNTL_25_41570_00359,,경기도 김포시 북변1로 13,경기도 김포시 북변동 703,,,,,,,,,,,차지비,,2022-07-11,,37.6274950000,126.7056900000
경기도,고양시 일산동구,백석동,"41285106",생활편의형SOC,CVNTL,전기충전소,백석1공영주차장,CVNTL_25_41285_00118,,경기도 고양시 일산동구 장백로 31-12,경기도 고양시 일산동구 백석동 1311,,,,,,,,,,,에스트래픽,,2022-07-11,,37.6405900000,126.7875100000
경기도,고양시 일산동구,백석동,"41285106",생활편의형SOC,CVNTL,전기충전소,더루벤스카운티,CVNTL_25_41285_00120,,경기도 고양시 일산동구 장백로 19,경기도 고양시 일산동구 백석동 1313,,,,,,,,,,,케이티,,2022-07-11,,37.6403000000,126.7891600000
경기도,안산시 단원구,초지동,"41273107",생활편의형SOC,CVNTL,전기충전소,안산시 이마트(고잔점),CVNTL_25_41273_00951,,경기도 안산시 단원구 원포공원1로 46,경기도 안산시 단원구 초지동 742-4,,,,,,,,,,,차지비,,2022-07-11,,37.3031230000,126.8129700000
경기도,고양시 일산서구,주엽동,"41287102",생활편의형SOC,CVNTL,전기충전소,롯데마트 주엽점,CVNTL_25_41287_00180,,경기도 고양시 일산서구 중앙로 1496,경기도 고양시 일산서구 주엽동 15,,,,,,,,,,,환경부(한국자동차환경협회),,2022-07-11,,37.6734120000,126.7553800000
경기도,고양시 일산서구,주엽동,"41287102",생활편의형SOC,CVNTL,전기충전소,대우시티프라자,CVNTL_25_41287_00181,,경기도 고양시 일산서구 중앙로 1455,경기도 고양시 일산서구 주엽동 115,,,,,,,,,,,케이티,,2022-07-11,,37.6709060000,126.7585300000
경기도,동두천시,지행동,"41250102",생활편의형SOC,CVNTL,전기충전소,동두천현진에버빌,CVNTL_25_41250_00459,,경기도 동두천시 생연로 10,경기도 동두천시 지행동 691-3,,,,,,,,,,,케이티,,2022-07-11,,37.8935050000,127.0498350000
경기도,동두천시,송내동,"41250101",생활편의형SOC,CVNTL,전기충전소,롯데마트 동두천점,CVNTL_25_41250_00460,,경기도 동두천시 평화로2169번길 21,경기도 동두천시 송내동 551,,,,,,,,,,,환경부(한국자동차환경협회),,2022-07-11,,37.8807030000,127.0532900000
경기도,안양시 동안구,호계동,"41173104",생활편의형SOC,CVNTL,전기충전소,롯데식품관 평촌점,CVNTL_25_41173_01070,,경기도 안양시 동안구 시민대로160번길 20,경기도 안양시 동안구 호계동 1053-1,,,,,,,,,,,한국전기차충전서비스,,2022-07-11,,37.3885540000,126.9501650000
경기도,고양시 덕양구,화정동,"41281123",생활편의형SOC,CVNTL,전기충전소,화정동옥빛마을13단지,CVNTL_25_41281_00062,,경기도 고양시 덕양구 백양로 60,경기도 고양시 덕양구 화정동 987,,,,,,,,,,,케이티,,2022-07-11,,37.6312070000,126.8343660000
경기도,평택시,포승읍,"41220256",생활편의형SOC,CVNTL,전기충전소,석양의추억,CVNTL_25_41220_01654,,경기도 평택시 포승읍 직산동길 21-9,경기도 평택시 포승읍 희곡리 627-16,,,,,,,,,,,지엔텔,,2022-07-11,,36.9482400000,126.8709300000
경기도,평택시,세교동,"41220120",생활편의형SOC,CVNTL,전기충전소,세교동주민센터,CVNTL_25_41220_01664,,경기도 평택시 세교3로 37,경기도 평택시 세교동 559-4,,,,,,,,,,,에버온,,2022-07-11,,37.0000840000,127.0827500000
경기도,성남시 중원구,상대원동,"41133105",생활편의형SOC,CVNTL,전기충전소,SK지식산업센터,CVNTL_25_41133_00665,,경기도 성남시 중원구 갈마치로 234,경기도 성남시 중원구 상대원동 223-28,,,,,,,,,,,케이티,,2022-07-11,,37.4352570000,127.1744300000
경기도,동두천시,상봉암동,"41250109",생활편의형SOC,CVNTL,전기충전소,소요산축산물브랜드육타운 공영주차장,CVNTL_25_41250_00463,,경기도 동두천시 평화로2910번길 30,경기도 동두천시 상봉암동 10,,,,,,,,,,,환경부(한국자동차환경협회),,2022-07-11,,37.9458600000,127.0644000000
경기도,의왕시,포일동,"41430109",생활편의형SOC,CVNTL,전기충전소,청계동주민센터,CVNTL_25_41430_01409,,경기도 의왕시 안양판교로 232,경기도 의왕시 포일동 602-15,,,,,,,,,,,케이티,,2022-07-11,,37.3885350000,126.9959900000
경기도,평택시,안중읍,"41220253",생활편의형SOC,CVNTL,전기충전소,세븐모텔,CVNTL_25_41220_01646,,경기도 평택시 안중읍 안현로 465,경기도 평택시 안중읍 안중리 236-6,,,,,,,,,,,제주전기자동차서비스,,2022-07-11,,36.9911400000,126.9320700000
경기도,여주시,가남읍,"41670250",생활편의형SOC,CVNTL,전기충전소,여주휴게소(강릉방향),CVNTL_25_41670_01225,,경기도 여주시 가남읍 여주남로 722,경기도 여주시 가남읍 본두리 675-3,,,,,,,,,,,환경부(한국자동차환경협회),,2022-07-11,,37.2380260000,127.5693600000
경기도,의왕시,월암동,"41430110",생활편의형SOC,CVNTL,전기충전소,의왕시 자연학습공원공영주차장,CVNTL_25_41430_01435,,경기도 의왕시 왕송못동로 307,경기도 의왕시 월암동 543-3,,,,,,,,,,,지엔텔,,2022-07-11,,37.3070400000,126.9531300000
경기도,의왕시,월암동,"41430110",생활편의형SOC,CVNTL,전기충전소,기아오토큐 월암점,CVNTL_25_41430_01436,,경기도 의왕시 왕소나무길 18,경기도 의왕시 월암동 612-6,,,,,,,,,,,에스트래픽,,2022-07-11,,37.3035850000,126.9555700000
경기도,가평군,설악면,"41820310",생활편의형SOC,CVNTL,전기충전소,국립 유명산자연휴양림,CVNTL_25_41820_00003,,경기도 가평군 설악면 유명산길 79-53,경기도 가평군 설악면 가일리 산 35,,,,,,,,,,,대영채비,,2022-07-11,,37.5929700000,127.4919740000
경기도,가평군,설악면,"41820310",생활편의형SOC,CVNTL,전기충전소,청심실내체육관,CVNTL_25_41820_00004,,경기도 가평군 설악면 미사리로 258,경기도 가평군 설악면 송산리 583-2,,,,,,,,,,,케이티,,2022-07-11,,37.6836660000,127.5207900000
경기도,가평군,상면,"41820330",생활편의형SOC,CVNTL,전기충전소,바오바오펜션,CVNTL_25_41820_00018,,경기도 가평군 상면 돌아우길 64-11,경기도 가평군 상면 상동리 73-9,,,,,,,,,,,지엔텔,,2022-07-11,,37.7872470000,127.3203000000
경기도,고양시 덕양구,성사동,"41281106",생활편의형SOC,CVNTL,전기충전소,성사2동 행정복지센터,CVNTL_25_41281_00047,,경기도 고양시 덕양구 호국로742번길 6-6,경기도 고양시 덕양구 성사동 734-1,,,,,,,,,,,에버온,,2022-07-11,,37.6528780000,126.8328860000
경기도,고양시 덕양구,화정동,"41281123",생활편의형SOC,CVNTL,전기충전소,달빛마을2단지 라이프아파트,CVNTL_25_41281_00048,,경기도 고양시 덕양구 화중로 220,경기도 고양시 덕양구 화정동 851,,,,,,,,,,,케이티,,2022-07-11,,37.6470380000,126.8354600000
경기도,고양시 덕양구,고양동,"41281116",생활편의형SOC,CVNTL,전기충전소,고양동현대아파트,CVNTL_25_41281_00049,,경기도 고양시 덕양구 읍내로 16,경기도 고양시 덕양구 고양동 240-6,,,,,,,,,,,케이티,,2022-07-11,,37.7012440000,126.9002900000
경기도,고양시 덕양구,고양동,"41281116",생활편의형SOC,CVNTL,전기충전소,고양동푸른마을2단지아파트,CVNTL_25_41281_00050,,경기도 고양시 덕양구 푸른마을로 16,경기도 고양시 덕양구 고양동 720,,,,,,,,,,,케이티,,2022-07-11,,37.7095900000,126.9043660000
경기도,고양시 덕양구,고양동,"41281116",생활편의형SOC,CVNTL,전기충전소,고양삼성아파트,CVNTL_25_41281_00051,,경기도 고양시 덕양구 혜음로 30,경기도 고양시 덕양구 고양동 197,,,,,,,,,,,케이티,,2022-07-11,,37.7028500000,126.9024900000
경기도,고양시 덕양구,행신동,"41281128",생활편의형SOC,CVNTL,전기충전소,롯데마트 고양점,CVNTL_25_41281_00056,,경기도 고양시 덕양구 충장로 150,경기도 고양시 덕양구 행신동 941,,,,,,,,,,,환경부(한국자동차환경협회),,2022-07-11,,37.6251700000,126.8361800000
경기도,화성시,향남읍,"41590259",생활편의형SOC,CVNTL,전기충전소,향남신영지웰아파트,CVNTL_25_41590_01855,,경기도 화성시 향남읍 행정중앙1로 63,경기도 화성시 향남읍 행정리 492,,,,,,,,,,,에스트래픽,,2022-07-11,,37.1270640000,126.9216600000
경기도,화성시,봉담읍,"41590253",생활편의형SOC,CVNTL,전기충전소,수원여자대학교 해란캠퍼스,CVNTL_25_41590_01862,,경기도 화성시 봉담읍 주석로 1098,경기도 화성시 봉담읍 상기리 336-26,,,,,,,,,,,한국전기차충전서비스,,2022-07-11,,37.2019580000,126.9318160000
경기도,화성시,병점동,"41590117",생활편의형SOC,CVNTL,전기충전소,LH화성서남부사업단,CVNTL_25_41590_01840,,경기도 화성시 병점노을2로 13,경기도 화성시 병점동 657,,,,,,,,,,,지엔텔,,2022-07-11,,37.2045600000,127.0301300000
경기도,파주시,목동동,"41480117",생활편의형SOC,CVNTL,전기충전소,파주운정두산위브아파트 ,CVNTL_25_41480_01595,,경기도 파주시 해솔로 85,경기도 파주시 목동동 647,,,,,,,,,,,케이티,,2022-07-11,,37.7284300000,126.7446900000
경기도,파주시,목동동,"41480117",생활편의형SOC,CVNTL,전기충전소,파주시 홈플러스(파주운정점),CVNTL_25_41480_01596,,경기도 파주시 청암로17번길 17,경기도 파주시 목동동 927,,,,,,,,,,,차지비,,2022-07-11,,37.7295650000,126.7367600000
경기도,파주시,목동동,"41480117",생활편의형SOC,CVNTL,전기충전소,산내마을11단지현대아이파크,CVNTL_25_41480_01597,,경기도 파주시 와석순환로 307,경기도 파주시 목동동 101,,,,,,,,,,,케이티,,2022-07-11,,37.7252040000,126.7393500000
경기도,파주시,아동동,"41480102",생활편의형SOC,CVNTL,전기충전소,파주시 금촌3동주민센터,CVNTL_25_41480_01599,,경기도 파주시 시청로 194,경기도 파주시 아동동 291-4,,,,,,,,,,,지엔텔,,2022-07-11,,37.7711750000,126.7782100000
경기도,파주시,아동동,"41480102",생활편의형SOC,CVNTL,전기충전소,파주 화림식자재마트,CVNTL_25_41480_01600,,경기도 파주시 경의로 1815,경기도 파주시 아동동 305-29,,,,,,,,,,,이카플러그,,2022-07-11,,37.7681120000,126.7765100000
경기도,파주시,금촌동,"41480101",생활편의형SOC,CVNTL,전기충전소,금촌2동행정복지센터,CVNTL_25_41480_01609,,경기도 파주시 쇠재로 115,경기도 파주시 금촌동 1011,,,,,,,,,,,한국전기차충전서비스,,2022-07-11,,37.7514270000,126.7772300000
경기도,파주시,동패동,"41480113",생활편의형SOC,CVNTL,전기충전소,교하도서관,CVNTL_25_41480_01617,,경기도 파주시 숲속노을로 256,경기도 파주시 동패동 1692,,,,,,,,,,,한국전기차충전서비스,,2022-07-11,,37.7229300000,126.7134100000
경기도,고양시 일산동구,백석동,"41285106",생활편의형SOC,CVNTL,전기충전소,굿모닝힐2차203동,CVNTL_25_41285_00106,,경기도 고양시 일산동구 호수로 358-26,경기도 고양시 일산동구 백석동 1321,,,,,,,,,,,케이티,,2022-07-11,,37.6393600000,126.7867300000
경기도,고양시 일산동구,백석동,"41285106",생활편의형SOC,CVNTL,전기충전소,고양시 이마트(일산점),CVNTL_25_41285_00129,,경기도 고양시 일산동구 중앙로 1124,경기도 고양시 일산동구 백석동 1194,,,,,,,,,,,차지비,,2022-07-11,,37.6478650000,126.7824250000
경기도,고양시 일산동구,백석동,"41285106",생활편의형SOC,CVNTL,전기충전소,동문굿모닝타워1차,CVNTL_25_41285_00130,,경기도 고양시 일산동구 호수로 358-39,경기도 고양시 일산동구 백석동 1323,,,,,,,,,,,케이티,,2022-07-11,,37.6403500000,126.7867050000
경기도,고양시 일산동구,백석동,"41285106",생활편의형SOC,CVNTL,전기충전소,굿모닝힐2차201동,CVNTL_25_41285_00137,,경기도 고양시 일산동구 경의로 25-37,경기도 고양시 일산동구 백석동 1319,,,,,,,,,,,케이티,,2022-07-11,,37.6390950000,126.7881550000
경기도,고양시 일산서구,주엽동,"41287102",생활편의형SOC,CVNTL,전기충전소,문촌삼익아파트,CVNTL_25_41287_00138,,경기도 고양시 일산서구 대산로 141,경기도 고양시 일산서구 주엽동 29,,,,,,,,,,,케이티,,2022-07-11,,37.6742600000,126.7622300000
경기도,고양시 일산서구,주엽동,"41287102",생활편의형SOC,CVNTL,전기충전소,강선마을3단지입주자대표회의,CVNTL_25_41287_00139,,경기도 고양시 일산서구 대산로 56,경기도 고양시 일산서구 주엽동 43,,,,,,,,,,,케이티,,2022-07-11,,37.6722340000,126.7707100000
경기도,고양시 일산서구,탄현동,"41287103",생활편의형SOC,CVNTL,전기충전소,탄현큰마을아파트,CVNTL_25_41287_00164,,경기도 고양시 일산서구 일현로 140,경기도 고양시 일산서구 탄현동 121,,,,,,,,,,,케이티,,2022-07-11,,37.7000160000,126.7644040000
경기도,고양시 일산서구,탄현동,"41287103",생활편의형SOC,CVNTL,전기충전소,탄현마을2단지삼익아파트,CVNTL_25_41287_00165,,경기도 고양시 일산서구 현중로 29,경기도 고양시 일산서구 탄현동 1487,,,,,,,,,,,케이티,,2022-07-11,,37.6934500000,126.7671900000
경기도,고양시 일산서구,탄현동,"41287103",생활편의형SOC,CVNTL,전기충전소,탄현마을서광12단지,CVNTL_25_41287_00166,,경기도 고양시 일산서구 산현로17번길 12,경기도 고양시 일산서구 탄현동 1579,,,,,,,,,,,케이티,,2022-07-11,,37.6900940000,126.7643200000
경기도,과천시,부림동,"41290110",생활편의형SOC,CVNTL,전기충전소,과천시 부림동 주민센터,CVNTL_25_41290_00182,,경기도 과천시 별양로 174,경기도 과천시 부림동 47,,,,,,,,,,,차지비,,2022-07-11,,37.4334560000,126.9985800000
경기도,광명시,노온사동,"41210105",생활편의형SOC,CVNTL,전기충전소,광명 아이씨점 기아오토큐,CVNTL_25_41210_00216,,경기도 광명시 광명로 351,경기도 광명시 노온사동 631,,,,,,,,,,,에스트래픽,,2022-07-11,,37.4321750000,126.8468000000
경기도,광명시,철산동,"41210102",생활편의형SOC,CVNTL,전기충전소,경기광명 철산푸르지오하늘채 108동,CVNTL_25_41210_00219,,경기도 광명시 디지털로 24,경기도 광명시 철산동 637,,,,,,,,,,,에버온,,2022-07-11,,37.4727940000,126.8692000000
경기도,김포시,걸포동,"41570102",생활편의형SOC,CVNTL,전기충전소,김포농협하나로마트,CVNTL_25_41570_00327,,경기도 김포시 홍도평로 20,경기도 김포시 걸포동 1440,,,,,,,,,,,에버온,,2022-07-11,,37.6315770000,126.7130050000
경기도,김포시,걸포동,"41570102",생활편의형SOC,CVNTL,전기충전소,김포시차량등록사업소,CVNTL_25_41570_00328,,경기도 김포시 감암로 125,경기도 김포시 걸포동 1550-63,,,,,,,,,,,한국전기차충전서비스,,2022-07-11,,37.6434250000,126.7082000000
경기도,김포시,통진읍,"41570250",생활편의형SOC,CVNTL,전기충전소,통진두레문화센터,CVNTL_25_41570_00330,,경기도 김포시 통진읍 김포대로 2347-8,경기도 김포시 통진읍 마송리 160-27,,,,,,,,,,,환경부(한국자동차환경협회),,2022-07-11,,37.6958350000,126.5870060000
경기도,가평군,청평면,"41820325",생활편의형SOC,CVNTL,전기충전소,한얼산기도원,CVNTL_25_41820_00014,,경기도 가평군 청평면 큰갈월로 237,경기도 가평군 청평면 대성리 222-7,,,,,,,,,,,에버온,,2022-07-11,,37.7324640000,127.3829700000
경기도,김포시,월곶면,"41570350",생활편의형SOC,CVNTL,전기충전소,월곶면사무소,CVNTL_25_41570_00332,,경기도 김포시 월곶면 군하로 263,경기도 김포시 월곶면 군하리 188-11,,,,,,,,,,,한국전기차충전서비스,,2022-07-11,,37.7151340000,126.5528400000
경기도,김포시,월곶면,"41570350",생활편의형SOC,CVNTL,전기충전소,김포시청소년수련원 주차장,CVNTL_25_41570_00333,,경기도 김포시 월곶면 용강로13번길 38,경기도 김포시 월곶면 군하리 435-14,,,,,,,,,,,한국전력,,2022-07-11,,37.7212370000,126.5539600000
경기도,김포시,운양동,"41570103",생활편의형SOC,CVNTL,전기충전소,김포아트센터,CVNTL_25_41570_00334,,경기도 김포시 모담공원로 170,경기도 김포시 운양동 1325-1,,,,,,,,,,,한국전기차충전서비스,,2022-07-11,,37.6467740000,126.6971100000
경기도,고양시 덕양구,동산동,"41281112",생활편의형SOC,CVNTL,전기충전소,스타필드 고양,CVNTL_25_41281_00052,,경기도 고양시 덕양구 고양대로 1955,경기도 고양시 덕양구 동산동 370,,,,,,,,,,,환경부(한국자동차환경협회),,2022-07-11,,37.6469800000,126.8947750000
경기도,광명시,철산동,"41210102",생활편의형SOC,CVNTL,전기충전소,광명지사,CVNTL_25_41210_00227,,경기도 광명시 철산로 3-13,경기도 광명시 철산동 255,,,,,,,,,,,한국전력,,2022-07-11,,37.4771700000,126.8659700000
경기도,김포시,풍무동,"41570107",생활편의형SOC,CVNTL,전기충전소,유현마을신동아아파트,CVNTL_25_41570_00368,,"",경기도 김포시 풍무동 583-6,,,,,,,,,,,케이티,,2022-07-11,,37.5973050000,126.7233660000
경기도,화성시,향남읍,"41590259",생활편의형SOC,CVNTL,전기충전소,화성종합경기타운,CVNTL_25_41590_01856,,경기도 화성시 향남읍 향남로 470,경기도 화성시 향남읍 도이리 668,,,,,,,,,,,한국전기차충전서비스,,2022-07-11,,37.1375500000,126.9242860000
경기도,화성시,향남읍,"41590259",생활편의형SOC,CVNTL,전기충전소,향남읍사무소,CVNTL_25_41590_01857,,경기도 화성시 향남읍 발안로 89,경기도 화성시 향남읍 행정리 287-1,,,,,,,,,,,에버온,,2022-07-11,,37.1320570000,126.9205900000
경기도,화성시,향남읍,"41590259",생활편의형SOC,CVNTL,전기충전소,경기화성 화성골프랜드,CVNTL_25_41590_01858,,경기도 화성시 향남읍 발안만세길 163-12,경기도 화성시 향남읍 장짐리 339-10,,,,,,,,,,,에버온,,2022-07-11,,37.1380420000,126.8975500000
경기도,화성시,향남읍,"41590259",생활편의형SOC,CVNTL,전기충전소,홈플러스 화성향남점,CVNTL_25_41590_01859,,경기도 화성시 향남읍 향남로 402,경기도 화성시 향남읍 행정리 487-1,,,,,,,,,,,한국전력,,2022-07-11,,37.1307600000,126.9218200000
경기도,화성시,봉담읍,"41590253",생활편의형SOC,CVNTL,전기충전소,화성시 이마트(화성봉담점),CVNTL_25_41590_01860,,경기도 화성시 봉담읍 효행로 278,경기도 화성시 봉담읍 동화리 133-1,,,,,,,,,,,차지비,,2022-07-11,,37.2225900000,126.9727000000
경기도,화성시,봉담읍,"41590253",생활편의형SOC,CVNTL,전기충전소,수원농협 하나로마트 봉담점,CVNTL_25_41590_01861,,경기도 화성시 봉담읍 동화길 81-16,경기도 화성시 봉담읍 동화리 597-1,,,,,,,,,,,한국전력,,2022-07-11,,37.2176100000,126.9591200000
경기도,안양시 동안구,호계동,"41173104",생활편의형SOC,CVNTL,전기충전소,안양지사,CVNTL_25_41173_01076,,경기도 안양시 동안구 귀인로 59,경기도 안양시 동안구 호계동 921,,,,,,,,,,,한국전력,,2022-07-11,,37.3838500000,126.9472300000
경기도,이천시,중리동,"41500103",생활편의형SOC,CVNTL,전기충전소,이천시청,CVNTL_25_41500_01502,,경기도 이천시 부악로 40,경기도 이천시 중리동 490,,,,,,,,,,,지엔텔,,2022-07-11,,37.2737500000,127.4359700000
경기도,평택시,통복동,"41220114",생활편의형SOC,CVNTL,전기충전소,원평동주민센터,CVNTL_25_41220_01674,,경기도 평택시 원평2로 9,경기도 평택시 통복동 172-6,,,,,,,,,,,에버온,,2022-07-11,,36.9893000000,127.0805700000
경기도,수원시 팔달구,화서동,"41115138",생활편의형SOC,CVNTL,전기충전소,수원시 화서1동 주민센터,CVNTL_25_41115_00805,,경기도 수원시 팔달구 동말로4번길 10,경기도 수원시 팔달구 화서동 184-357,,,,,,,,,,,차지비,,2022-07-11,,37.2764170000,126.9950400000
경기도,수원시 팔달구,화서동,"41115138",생활편의형SOC,CVNTL,전기충전소,꽃뫼양지마을 현대아파트,CVNTL_25_41115_00826,,경기도 수원시 팔달구 화산로17번길 6,경기도 수원시 팔달구 화서동 700,,,,,,,,,,,케이티,,2022-07-11,,37.2869640000,126.9852200000
경기도,수원시 팔달구,화서동,"41115138",생활편의형SOC,CVNTL,전기충전소,수원시 화서2동 주민센터,CVNTL_25_41115_00827,,경기도 수원시 팔달구 화산로6번길 6,경기도 수원시 팔달구 화서동 689-1,,,,,,,,,,,차지비,,2022-07-11,,37.2850200000,126.9862700000
경기도,수원시 팔달구,화서동,"41115138",생활편의형SOC,CVNTL,전기충전소,화서역 환승주차장,CVNTL_25_41115_00813,,경기도 수원시 팔달구 덕영대로 691-13,경기도 수원시 팔달구 화서동 643,,,,,,,,,,,한국전력,,2022-07-11,,37.2856600000,126.9906400000
경기도,안성시,연지동,"41550115",생활편의형SOC,CVNTL,전기충전소,장안면옥,CVNTL_25_41550_01059,,경기도 안성시 중앙로371번길 54,경기도 안성시 연지동 157-2,,,,,,,,,,,이카플러그,,2022-07-11,,37.0099300000,127.2694850000
경기도,안산시 단원구,초지동,"41273107",생활편의형SOC,CVNTL,전기충전소,라이프인카,CVNTL_25_41273_00952,,경기도 안산시 단원구 원포공원로 18,경기도 안산시 단원구 초지동 744-9,,,,,,,,,,,케이티,,2022-07-11,,37.3007850000,126.8106460000
경기도,안산시 단원구,초지동,"41273107",생활편의형SOC,CVNTL,전기충전소,단원보건소,CVNTL_25_41273_00953,,경기도 안산시 단원구 화랑로 250,경기도 안산시 단원구 초지동 666-8,,,,,,,,,,,한국전기차충전서비스,,2022-07-11,,37.3208350000,126.8152900000
경기도,안산시 단원구,초지동,"41273107",생활편의형SOC,CVNTL,전기충전소,안산시 산업지원본부,CVNTL_25_41273_00954,,경기도 안산시 단원구 중앙대로 685,경기도 안산시 단원구 초지동 666-2,,,,,,,,,,,한국전기차충전서비스,,2022-07-11,,37.3197480000,126.8120040000
경기도,안산시 단원구,초지동,"41273107",생활편의형SOC,CVNTL,전기충전소,강욱순스포츠센터,CVNTL_25_41273_00955,,경기도 안산시 단원구 첨단로 644,경기도 안산시 단원구 초지동 673-1,,,,,,,,,,,한국전기차충전서비스,,2022-07-11,,37.2948900000,126.7901460000
경기도,안산시 단원구,초지동,"41273107",생활편의형SOC,CVNTL,전기충전소,초지동행정복지센터,CVNTL_25_41273_00956,,경기도 안산시 단원구 초지동로 67,경기도 안산시 단원구 초지동 728-1,,,,,,,,,,,에스트래픽,,2022-07-11,,37.3098640000,126.8167950000
경기도,안산시 단원구,초지동,"41273107",생활편의형SOC,CVNTL,전기충전소,안산시민시장(초급속),CVNTL_25_41273_00957,,경기도 안산시 단원구 화랑로 149,경기도 안산시 단원구 초지동 604-4,,,,,,,,,,,에스트래픽,,2022-07-11,,37.3250700000,126.8054000000
경기도,안산시 단원구,초지동,"41273107",생활편의형SOC,CVNTL,전기충전소,신안산대학교,CVNTL_25_41273_00949,,경기도 안산시 단원구 신안산대학로 135,경기도 안산시 단원구 초지동 671,,,,,,,,,,,한국전기차충전서비스,,2022-07-11,,37.3125800000,126.8071300000
경기도,안산시 단원구,초지동,"41273107",생활편의형SOC,CVNTL,전기충전소,화랑유원지 2주차장,CVNTL_25_41273_00950,,경기도 안산시 단원구 동산로 268,경기도 안산시 단원구 초지동 667,,,,,,,,,,,환경부(한국자동차환경협회),,2022-07-11,,37.3243140000,126.8118700000
경기도,고양시 일산동구,백석동,"41285106",생활편의형SOC,CVNTL,전기충전소,대방샤인밸리,CVNTL_25_41285_00110,,경기도 고양시 일산동구 일산로 74-17,경기도 고양시 일산동구 백석동 1239-2,,,,,,,,,,,케이티,,2022-07-11,,37.6441840000,126.7909500000
경기도,고양시 일산동구,백석동,"41285106",생활편의형SOC,CVNTL,전기충전소,디아뜨크리스탈,CVNTL_25_41285_00111,,경기도 고양시 일산동구 일산로 16,경기도 고양시 일산동구 백석동 1325,,,,,,,,,,,케이티,,2022-07-11,,37.6403920000,126.7855150000
경기도,고양시 일산동구,백석동,"41285106",생활편의형SOC,CVNTL,전기충전소,고양종합터미널환승주차장,CVNTL_25_41285_00121,,경기도 고양시 일산동구 중앙로 1036,경기도 고양시 일산동구 백석동 1242,,,,,,,,,,,한국전력,,2022-07-11,,37.6431800000,126.7896600000
경기도,고양시 일산동구,백석동,"41285106",생활편의형SOC,CVNTL,전기충전소,백석1동행정복지센터,CVNTL_25_41285_00122,,경기도 고양시 일산동구 일산로 145,경기도 고양시 일산동구 백석동 1147,,,,,,,,,,,에버온,,2022-07-11,,37.6496350000,126.7924900000
경기도,고양시 일산동구,백석동,"41285106",생활편의형SOC,CVNTL,전기충전소,고양지사,CVNTL_25_41285_00123,,경기도 고양시 일산동구 장백로 39,경기도 고양시 일산동구 백석동 1310,,,,,,,,,,,한국전력,,2022-07-11,,37.6413700000,126.7877700000
경기도,고양시 일산동구,백석동,"41285106",생활편의형SOC,CVNTL,전기충전소,굿모닝힐2차204동,CVNTL_25_41285_00131,,경기도 고양시 일산동구 경의로 25-53,경기도 고양시 일산동구 백석동 1322,,,,,,,,,,,케이티,,2022-07-11,,37.6397970000,126.7872700000
경기도,고양시 일산동구,백석동,"41285106",생활편의형SOC,CVNTL,전기충전소,백송3단지한신,CVNTL_25_41285_00133,,경기도 고양시 일산동구 백석로 103,경기도 고양시 일산동구 백석동 1183,,,,,,,,,,,케이티,,2022-07-11,,37.6495440000,126.7888200000
경기도,고양시 일산동구,백석동,"41285106",생활편의형SOC,CVNTL,전기충전소,일산요진와이시티,CVNTL_25_41285_00134,,경기도 고양시 일산동구 강송로 33,경기도 고양시 일산동구 백석동 1237,,,,,,,,,,,케이티,,2022-07-11,,37.6426470000,126.7930150000
경기도,고양시 일산동구,백석동,"41285106",생활편의형SOC,CVNTL,전기충전소,굿모닝힐2차202동,CVNTL_25_41285_00135,,경기도 고양시 일산동구 호수로 340-25,경기도 고양시 일산동구 백석동 1320,,,,,,,,,,,케이티,,2022-07-11,,37.6386640000,126.7875900000
경기도,고양시 일산동구,백석동,"41285106",생활편의형SOC,CVNTL,전기충전소,비잔티움1단지,CVNTL_25_41285_00136,,경기도 고양시 일산동구 호수로 340-38,경기도 고양시 일산동구 백석동 1318,,,,,,,,,,,케이티,,2022-07-11,,37.6388170000,126.7885200000
경기도,고양시 덕양구,주교동,"41281101",생활편의형SOC,CVNTL,전기충전소,주교1공영주차장,CVNTL_25_41281_00071,,경기도 고양시 덕양구 고양대로 1330,경기도 고양시 덕양구 주교동 206-1,,,,,,,,,,,한국전기차충전서비스,,2022-07-11,,37.6555980000,126.8317800000
경기도,고양시 덕양구,주교동,"41281101",생활편의형SOC,CVNTL,전기충전소,고양시청,CVNTL_25_41281_00070,,경기도 고양시 덕양구 고양시청로 10,경기도 고양시 덕양구 주교동 600,,,,,,,,,,,환경부(한국자동차환경협회),,2022-07-11,,37.6581900000,126.8324050000
경기도,평택시,가재동,"41220107",생활편의형SOC,CVNTL,전기충전소,송탄동주민센터,CVNTL_25_41220_01623,,경기도 평택시 방여울로 117,경기도 평택시 가재동 20-53,,,,,,,,,,,에버온,,2022-07-11,,37.0424270000,127.0862000000
경기도,평택시,오성면,"41220340",생활편의형SOC,CVNTL,전기충전소,평택시농업기술센터,CVNTL_25_41220_01624,,경기도 평택시 오성면 청오로 33-58,경기도 평택시 오성면 숙성리 95-3,,,,,,,,,,,지엔텔,,2022-07-11,,37.0143200000,126.9810500000
경기도,평택시,오성면,"41220340",생활편의형SOC,CVNTL,전기충전소,오성면사무소,CVNTL_25_41220_01625,,경기도 평택시 오성면 숙성시장길 23,경기도 평택시 오성면 숙성리 129-1,,,,,,,,,,,에버온,,2022-07-11,,37.0077440000,126.9803160000
경기도,평택시,오성면,"41220340",생활편의형SOC,CVNTL,전기충전소,평택시 농업기술센터,CVNTL_25_41220_01626,,경기도 평택시 오성면 청오로 33-58,경기도 평택시 오성면 숙성리 95-3,,,,,,,,,,,에스트래픽,,2022-07-11,,37.0143200000,126.9810500000
경기도,고양시 일산서구,일산동,"41287101",생활편의형SOC,CVNTL,전기충전소,일산삼성아파트 입주자대표회의,CVNTL_25_41287_00168,,"",경기도 고양시 일산서구 일산동 1876,,,,,,,,,,,케이티,,2022-07-11,,37.6903700000,126.7758800000
경기도,고양시 일산서구,일산동,"41287101",생활편의형SOC,CVNTL,전기충전소,산들마을5단지동문굿모닝힐,CVNTL_25_41287_00169,,경기도 고양시 일산서구 일중로 30,경기도 고양시 일산서구 일산동 1670,,,,,,,,,,,케이티,,2022-07-11,,37.6815070000,126.7754100000
경기도,고양시 일산서구,일산동,"41287101",생활편의형SOC,CVNTL,전기충전소,일산동에이스10차아파트,CVNTL_25_41287_00170,,"",경기도 고양시 일산서구 일산동 2041,,,,,,,,,,,케이티,,2022-07-11,,37.6899340000,126.7694000000
경기도,고양시 일산서구,일산동,"41287101",생활편의형SOC,CVNTL,전기충전소,탄현1차주은아파트입주자대표회의,CVNTL_25_41287_00171,,"",경기도 고양시 일산서구 일산동 1997,,,,,,,,,,,케이티,,2022-07-11,,37.6909830000,126.7714900000
경기도,고양시 일산서구,일산동,"41287101",생활편의형SOC,CVNTL,전기충전소,일산후곡5단지아파트,CVNTL_25_41287_00167,,경기도 고양시 일산서구 후곡로 35,경기도 고양시 일산서구 일산동 1048,,,,,,,,,,,케이티,,2022-07-11,,37.6809230000,126.7633400000
경기도,고양시 일산서구,일산동,"41287101",생활편의형SOC,CVNTL,전기충전소,일산푸르지오아파트,CVNTL_25_41287_00176,,경기도 고양시 일산서구 일청로 75,경기도 고양시 일산서구 일산동 1945,,,,,,,,,,,케이티,,2022-07-11,,37.6906100000,126.7729700000
경기도,고양시 일산서구,일산동,"41287101",생활편의형SOC,CVNTL,전기충전소,일산3동 행정복지센터,CVNTL_25_41287_00177,,경기도 고양시 일산서구 강선로 158,경기도 고양시 일산서구 일산동 1100,,,,,,,,,,,에버온,,2022-07-11,,37.6769830000,126.7702300000
경기도,고양시 일산서구,일산동,"41287101",생활편의형SOC,CVNTL,전기충전소,일산1동 행정복지센터,CVNTL_25_41287_00178,,경기도 고양시 일산서구 원일로 55,경기도 고양시 일산서구 일산동 963-6,,,,,,,,,,,에버온,,2022-07-11,,37.6872370000,126.7685500000
경기도,고양시 일산서구,일산동,"41287101",생활편의형SOC,CVNTL,전기충전소,일산2동행정복지센터,CVNTL_25_41287_00179,,경기도 고양시 일산서구 고봉로 283,경기도 고양시 일산서구 일산동 1679,,,,,,,,,,,에버온,,2022-07-11,,37.6846240000,126.7771800000
경기도,안양시 동안구,호계동,"41173104",생활편의형SOC,CVNTL,전기충전소,평촌목련신동아아파트903동,CVNTL_25_41173_01067,,"",경기도 안양시 동안구 호계동 1053-3,,,,,,,,,,,케이티,,2022-07-11,,37.3860050000,126.9526300000
경기도,안양시 동안구,호계동,"41173104",생활편의형SOC,CVNTL,전기충전소,호계일신아파트,CVNTL_25_41173_01068,,경기도 안양시 동안구 경수대로707번길 52,경기도 안양시 동안구 호계동 920-4,,,,,,,,,,,케이티,,2022-07-11,,37.3842400000,126.9485700000
경기도,안양시 동안구,호계동,"41173104",생활편의형SOC,CVNTL,전기충전소,호계3동 행정복지센터,CVNTL_25_41173_01069,,경기도 안양시 동안구 경수대로 504,경기도 안양시 동안구 호계동 764-5,,,,,,,,,,,에버온,,2022-07-11,,37.3676720000,126.9588000000
경기도,안양시 동안구,호계동,"41173104",생활편의형SOC,CVNTL,전기충전소,갈산동 행정복지센터,CVNTL_25_41173_01071,,경기도 안양시 동안구 흥안대로223번길 30,경기도 안양시 동안구 호계동 1118,,,,,,,,,,,에버온,,2022-07-11,,37.3761400000,126.9661600000
경기도,안양시 동안구,호계동,"41173104",생활편의형SOC,CVNTL,전기충전소,안양시 안양감리교회교육관,CVNTL_25_41173_01072,,경기도 안양시 동안구 전파로 87,경기도 안양시 동안구 호계동 892-6,,,,,,,,,,,차지비,,2022-07-11,,37.3903100000,126.9427000000
경기도,안양시 동안구,호계동,"41173104",생활편의형SOC,CVNTL,전기충전소,기아오토큐 군포자동차정비,CVNTL_25_41173_01073,,경기도 안양시 동안구 엘에스로 95,경기도 안양시 동안구 호계동 1028-12,,,,,,,,,,,에스트래픽,,2022-07-11,,37.3705330000,126.9503400000
경기도,안양시 동안구,호계동,"41173104",생활편의형SOC,CVNTL,전기충전소,홈플러스 안양점,CVNTL_25_41173_01075,,경기도 안양시 동안구 엘에스로 92,경기도 안양시 동안구 호계동 555-9,,,,,,,,,,,환경부(한국자동차환경협회),,2022-07-11,,37.3719140000,126.9506700000
경기도,안양시 동안구,호계동,"41173104",생활편의형SOC,CVNTL,전기충전소,안양SKV1센터,CVNTL_25_41173_01077,,경기도 안양시 동안구 엘에스로116번길 25-32,경기도 안양시 동안구 호계동 555-42,,,,,,,,,,,한국전기차충전서비스,,2022-07-11,,37.3740600000,126.9487900000
경기도,부천시,역곡동,"41190107",생활편의형SOC,CVNTL,전기충전소,부천시_역곡1동주민센터,CVNTL_25_41190_00465,,경기도 부천시 부일로791번길 14,경기도 부천시 역곡동 225-29,,,,,,,,,,,한국전기차충전서비스,,2022-07-11,,37.4892540000,126.8166960000
경기도,부천시,도당동,"41190104",생활편의형SOC,CVNTL,전기충전소,부천지사,CVNTL_25_41190_00466,,경기도 부천시 부천로264번길 4,경기도 부천시 도당동 185-148,,,,,,,,,,,한국전력,,2022-07-11,,37.5068900000,126.7865100000
경기도,안양시 동안구,비산동,"41173101",생활편의형SOC,CVNTL,전기충전소,동안구청,CVNTL_25_41173_01079,,경기도 안양시 동안구 동안로 158,경기도 안양시 동안구 비산동 1111,,,,,,,,,,,환경부(한국자동차환경협회),,2022-07-11,,37.3924800000,126.9509800000
경기도,안양시 동안구,비산동,"41173101",생활편의형SOC,CVNTL,전기충전소,신안메트로칸,CVNTL_25_41173_01080,,경기도 안양시 동안구 평촌대로 239,경기도 안양시 동안구 비산동 1115,,,,,,,,,,,케이티,,2022-07-11,,37.3926160000,126.9541500000
경기도,안양시 동안구,비산동,"41173101",생활편의형SOC,CVNTL,전기충전소,달안동 주민센터,CVNTL_25_41173_01081,,경기도 안양시 동안구 달안로 65,경기도 안양시 동안구 비산동 1101-5,,,,,,,,,,,에버온,,2022-07-11,,37.3961030000,126.9501650000
경기도,안양시 동안구,비산동,"41173101",생활편의형SOC,CVNTL,전기충전소,홈플러스 평촌점,CVNTL_25_41173_01082,,경기도 안양시 동안구 동안로 162,경기도 안양시 동안구 비산동 1109-3,,,,,,,,,,,한국전력,,2022-07-11,,37.3932760000,126.9504200000
경기도,안양시 동안구,비산동,"41173101",생활편의형SOC,CVNTL,전기충전소,안양시 좋은이웃교회,CVNTL_25_41173_01096,,경기도 안양시 동안구 경수대로 938,경기도 안양시 동안구 비산동 554-15,,,,,,,,,,,차지비,,2022-07-11,,37.3991240000,126.9330900000
경기도,안양시 동안구,비산동,"41173101",생활편의형SOC,CVNTL,전기충전소,안양시 안양종합운동장,CVNTL_25_41173_01097,,경기도 안양시 동안구 평촌대로 389,경기도 안양시 동안구 비산동 1023,,,,,,,,,,,지엔텔,,2022-07-11,,37.4052350000,126.9476550000
경기도,안양시 동안구,비산동,"41173101",생활편의형SOC,CVNTL,전기충전소,부흥동 주민센터,CVNTL_25_41173_01078,,경기도 안양시 동안구 달안로 28,경기도 안양시 동안구 비산동 1103-1,,,,,,,,,,,에버온,,2022-07-11,,37.3936800000,126.9471740000
경기도,부천시,여월동,"41190118",생활편의형SOC,CVNTL,전기충전소,부천오정경찰서,CVNTL_25_41190_00471,,경기도 부천시 소사로 631,경기도 부천시 여월동 304,,,,,,,,,,,에스트래픽,,2022-07-11,,37.5143000000,126.8002400000
경기도,성남시 분당구,서현동,"41135105",생활편의형SOC,CVNTL,전기충전소,성남시 서현1동행정복지센터,CVNTL_25_41135_00543,,경기도 성남시 분당구 중앙공원로39번길 35,경기도 성남시 분당구 서현동 89-1,,,,,,,,,,,차지비,,2022-07-11,,37.3828280000,127.1260400000
경기도,성남시 분당구,서현동,"41135105",생활편의형SOC,CVNTL,전기충전소,점골 공영주차장,CVNTL_25_41135_00544,,경기도 성남시 분당구 불정로 419,경기도 성남시 분당구 서현동 332,,,,,,,,,,,에스트래픽,,2022-07-11,,37.3770300000,127.1400800000
경기도,성남시 분당구,서현동,"41135105",생활편의형SOC,CVNTL,전기충전소,성남시 서현2동 주민센터,CVNTL_25_41135_00546,,경기도 성남시 분당구 돌마로476번길 17,경기도 성남시 분당구 서현동 296,,,,,,,,,,,차지비,,2022-07-11,,37.3760530000,127.1346100000
경기도,고양시 덕양구,지축동,"41281109",생활편의형SOC,CVNTL,전기충전소,둥글이네(이영수),CVNTL_25_41281_00072,,경기도 고양시 덕양구 북한산로387번길 45-12,경기도 고양시 덕양구 지축동 153,,,,,,,,,,,이카플러그,,2022-07-11,,37.6622850000,126.9487100000
경기도,평택시,서탄면,"41220320",생활편의형SOC,CVNTL,전기충전소,서탄면주민센터,CVNTL_25_41220_01634,,경기도 평택시 서탄면 금암2길 122,경기도 평택시 서탄면 금암리 247,,,,,,,,,,,에버온,,2022-07-11,,37.1081920000,127.0354160000
경기도,고양시 일산서구,주엽동,"41287102",생활편의형SOC,CVNTL,전기충전소,경남아파트,CVNTL_25_41287_00140,,경기도 고양시 일산서구 강선로 116,경기도 고양시 일산서구 주엽동 38,,,,,,,,,,,케이티,,2022-07-11,,37.6739430000,126.7689500000
경기도,고양시 일산서구,주엽동,"41287102",생활편의형SOC,CVNTL,전기충전소,주엽동강선마을4단지아파트,CVNTL_25_41287_00141,,경기도 고양시 일산서구 대산로 53,경기도 고양시 일산서구 주엽동 46,,,,,,,,,,,케이티,,2022-07-11,,37.6705470000,126.7696840000
경기도,동두천시,지행동,"41250102",생활편의형SOC,CVNTL,전기충전소,송내4공영주차장,CVNTL_25_41250_00448,,경기도 동두천시 중앙로 110-24,경기도 동두천시 지행동 722,,,,,,,,,,,한국전기차충전서비스,,2022-07-11,,37.8908580000,127.0524800000
경기도,동두천시,지행동,"41250102",생활편의형SOC,CVNTL,전기충전소,동두천지사,CVNTL_25_41250_00458,,경기도 동두천시 평화로 2262,경기도 동두천시 지행동 476-2,,,,,,,,,,,한국전력,,2022-07-11,,37.8895200000,127.0574400000
경기도,동두천시,송내동,"41250101",생활편의형SOC,CVNTL,전기충전소,송내아이파크입대위,CVNTL_25_41250_00449,,경기도 동두천시 강변로 158,경기도 동두천시 송내동 664-4,,,,,,,,,,,케이티,,2022-07-11,,37.8863830000,127.0494700000
경기도,부천시,삼정동,"41190123",생활편의형SOC,CVNTL,전기충전소,서부천서비스㈜,CVNTL_25_41190_00472,,경기도 부천시 신흥로413번길 18,경기도 부천시 삼정동 198,,,,,,,,,,,기아자동차,,2022-07-11,,37.5208300000,126.7744700000
경기도,부천시,삼정동,"41190123",생활편의형SOC,CVNTL,전기충전소,부천시_신흥동주민센터,CVNTL_25_41190_00532,,경기도 부천시 삼작로 109,경기도 부천시 삼정동 207,,,,,,,,,,,한국전기차충전서비스,,2022-07-11,,37.5204120000,126.7734900000
경기도,안산시 단원구,대부북동,"41273111",생활편의형SOC,CVNTL,전기충전소,안산시 대부동행정복지센터,CVNTL_25_41273_00903,,경기도 안산시 단원구 대부중앙로 97-9,경기도 안산시 단원구 대부북동 467,,,,,,,,,,,지엔텔,,2022-07-11,,37.2435500000,126.5852000000
경기도,안산시 단원구,대부북동,"41273111",생활편의형SOC,CVNTL,전기충전소,대부도 공영 주차장,CVNTL_25_41273_00958,,경기도 안산시 단원구 대부황금로 1432,경기도 안산시 단원구 대부북동 1849-30,,,,,,,,,,,환경부(한국자동차환경협회),,2022-07-11,,37.2839600000,126.5700600000
경기도,안산시 단원구,대부북동,"41273111",생활편의형SOC,CVNTL,전기충전소,안산 방아머리 제2주차장,CVNTL_25_41273_00904,,경기도 안산시 단원구 대부황금로 1488,경기도 안산시 단원구 대부북동 1844-7,,,,,,,,,,,대영채비,,2022-07-11,,37.2869400000,126.5747760000
경기도,안산시 단원구,원시동,"41273105",생활편의형SOC,CVNTL,전기충전소,삼일제약,CVNTL_25_41273_00909,,경기도 안산시 단원구 산단로 216,경기도 안산시 단원구 원시동 772-1,,,,,,,,,,,케이티,,2022-07-11,,37.3147130000,126.7909300000
경기도,안산시 단원구,원시동,"41273105",생활편의형SOC,CVNTL,전기충전소,안산시 대우테크노피아,CVNTL_25_41273_00910,,경기도 안산시 단원구 산단로 296,경기도 안산시 단원구 원시동 768-1,,,,,,,,,,,차지비,,2022-07-11,,37.3217960000,126.7884450000
경기도,안산시 단원구,원시동,"41273105",생활편의형SOC,CVNTL,전기충전소,한국산업단지공단 경기지역본부,CVNTL_25_41273_00911,,경기도 안산시 단원구 동산로 57,경기도 안산시 단원구 원시동 773-2,,,,,,,,,,,한국전기차충전서비스,,2022-07-11,,37.3144570000,126.7967450000
경기도,안산시 단원구,원시동,"41273105",생활편의형SOC,CVNTL,전기충전소,공단삼거리 공영주차장(B),CVNTL_25_41273_00907,,"",경기도 안산시 단원구 원시동 772-6,,,,,,,,,,,환경부(한국자동차환경협회),,2022-07-11,,37.3129000000,126.7917600000
경기도,고양시 덕양구,성사동,"41281106",생활편의형SOC,CVNTL,전기충전소,원당환승주차장,CVNTL_25_41281_00067,,경기도 고양시 덕양구 호국로790번길 102,경기도 고양시 덕양구 성사동 394,,,,,,,,,,,한국전기차충전서비스,,2022-07-11,,37.6540870000,126.8411000000
경기도,고양시 덕양구,성사동,"41281106",생활편의형SOC,CVNTL,전기충전소,성사2공영주차장,CVNTL_25_41281_00066,,"",경기도 고양시 덕양구 성사동 721,,,,,,,,,,,한국전기차충전서비스,,2022-07-11,,37.6532000000,126.8386150000
경기도,안양시 만안구,안양동,"41171101",생활편의형SOC,CVNTL,전기충전소,안양6동행정복지센터,CVNTL_25_41171_01104,,경기도 안양시 만안구 안양로170번길 23,경기도 안양시 만안구 안양동 437-4,,,,,,,,,,,에버온,,2022-07-11,,37.3900340000,126.9306100000
경기도,안양시 만안구,안양동,"41171101",생활편의형SOC,CVNTL,전기충전소,안양4동 행정복지센터,CVNTL_25_41171_01105,,경기도 안양시 만안구 냉천로193번길 34,경기도 안양시 만안구 안양동 711-399,,,,,,,,,,,에버온,,2022-07-11,,37.3965530000,126.9178800000
경기도,안양시 만안구,안양동,"41171101",생활편의형SOC,CVNTL,전기충전소,안양7동 행정복지센터,CVNTL_25_41171_01106,,경기도 안양시 만안구 덕천로 115,경기도 안양시 만안구 안양동 139-3,,,,,,,,,,,에버온,,2022-07-11,,37.3914600000,126.9338000000
경기도,안양시 만안구,안양동,"41171101",생활편의형SOC,CVNTL,전기충전소,안양1동 행정복지센터,CVNTL_25_41171_01107,,경기도 안양시 만안구 장내로 170,경기도 안양시 만안구 안양동 1383,,,,,,,,,,,에버온,,2022-07-11,,37.3991000000,126.9259200000
경기도,안양시 만안구,안양동,"41171101",생활편의형SOC,CVNTL,전기충전소,안양만안경찰서,CVNTL_25_41171_01108,,경기도 안양시 만안구 냉천로 63,경기도 안양시 만안구 안양동 578-8,,,,,,,,,,,에스트래픽,,2022-07-11,,37.3871840000,126.9261800000
경기도,안양시 만안구,안양동,"41171101",생활편의형SOC,CVNTL,전기충전소,안양9동 행정복지센터,CVNTL_25_41171_01115,,경기도 안양시 만안구 병목안로142번길 12-9,경기도 안양시 만안구 안양동 995-27,,,,,,,,,,,에버온,,2022-07-11,,37.3914700000,126.9084100000
경기도,안산시 상록구,성포동,"41271108",생활편의형SOC,CVNTL,전기충전소,안산시_성포동행정복지센터,CVNTL_25_41271_00960,,경기도 안산시 상록구 충장로 468,경기도 안산시 상록구 성포동 585,,,,,,,,,,,한국전기차충전서비스,,2022-07-11,,37.3205680000,126.8495940000
경기도,안산시 상록구,성포동,"41271108",생활편의형SOC,CVNTL,전기충전소,홈플러스 안산점,CVNTL_25_41271_00961,,경기도 안산시 상록구 충장로 432,경기도 안산시 상록구 성포동 586,,,,,,,,,,,환경부(한국자동차환경협회),,2022-07-11,,37.3173200000,126.8501000000
경기도,안산시 상록구,성포동,"41271108",생활편의형SOC,CVNTL,전기충전소,"0",CVNTL_25_41271_00959,,경기도 안산시 상록구 성포로 15,경기도 안산시 상록구 성포동 592,,,,,,,,,,,케이티,,2022-07-11,,37.3254300000,126.8428200000
경기도,부천시,소사동,"41190106",생활편의형SOC,CVNTL,전기충전소,부천시_소사동주민센터,CVNTL_25_41190_00473,,경기도 부천시 소사로310번길 3-9,경기도 부천시 소사동 23-1,,,,,,,,,,,한국전기차충전서비스,,2022-07-11,,37.4858780000,126.7946240000
경기도,광명시,하안동,"41210103",생활편의형SOC,CVNTL,전기충전소,광명시 하안2동 주민센터,CVNTL_25_41210_00199,,경기도 광명시 안현로 25,경기도 광명시 하안동 682-3,,,,,,,,,,,차지비,,2022-07-11,,37.4647180000,126.8747300000
경기도,광명시,하안동,"41210103",생활편의형SOC,CVNTL,전기충전소,광명시 하안4동 주민센터,CVNTL_25_41210_00200,,경기도 광명시 안현로 54,경기도 광명시 하안동 30-2,,,,,,,,,,,차지비,,2022-07-11,,37.4657200000,126.8777500000
경기도,광명시,하안동,"41210103",생활편의형SOC,CVNTL,전기충전소,광명시 하안3동 주민센터,CVNTL_25_41210_00201,,경기도 광명시 금당로 28,경기도 광명시 하안동 260-1,,,,,,,,,,,차지비,,2022-07-11,,37.4587100000,126.8816150000
경기도,고양시 일산동구,장항동,"41285104",생활편의형SOC,CVNTL,전기충전소,의정부지방법원 고양지원,CVNTL_25_41285_00125,,경기도 고양시 일산동구 장백로 209,경기도 고양시 일산동구 장항동 885-1,,,,,,,,,,,에버온,,2022-07-11,,37.6528400000,126.7748400000
경기도,고양시 일산동구,장항동,"41285104",생활편의형SOC,CVNTL,전기충전소,장항제1공영주차장,CVNTL_25_41285_00126,,경기도 고양시 일산동구 무궁화로 32-19,경기도 고양시 일산동구 장항동 777,,,,,,,,,,,한국전기차충전서비스,,2022-07-11,,37.6620300000,126.7687400000
경기도,고양시 일산동구,장항동,"41285104",생활편의형SOC,CVNTL,전기충전소,코오롱레이크폴리스1 입대의,CVNTL_25_41285_00127,,경기도 고양시 일산동구 호수로 606,경기도 고양시 일산동구 장항동 865,,,,,,,,,,,케이티,,2022-07-11,,37.6566240000,126.7688300000
경기도,고양시 일산동구,장항동,"41285104",생활편의형SOC,CVNTL,전기충전소,장항1동행정복지센터,CVNTL_25_41285_00128,,경기도 고양시 일산동구 장항로225번길 72,경기도 고양시 일산동구 장항동 578-2,,,,,,,,,,,한국전기차충전서비스,,2022-07-11,,37.6416240000,126.7707200000
경기도,고양시 일산동구,장항동,"41285104",생활편의형SOC,CVNTL,전기충전소,한솔프레미낭오피스,CVNTL_25_41285_00073,,경기도 고양시 일산동구 백마로213번길 12,경기도 고양시 일산동구 장항동 852-1,,,,,,,,,,,케이티,,2022-07-11,,37.6548230000,126.7738800000
경기도,고양시 일산동구,장항동,"41285104",생활편의형SOC,CVNTL,전기충전소,장항동대우메종리브르,CVNTL_25_41285_00074,,경기도 고양시 일산동구 호수로 672,경기도 고양시 일산동구 장항동 750-1,,,,,,,,,,,케이티,,2022-07-11,,37.6614600000,126.7651200000
경기도,고양시 일산동구,장항동,"41285104",생활편의형SOC,CVNTL,전기충전소,현대타운빌관리단,CVNTL_25_41285_00075,,경기도 고양시 일산동구 중앙로 1233,경기도 고양시 일산동구 장항동 848-1,,,,,,,,,,,케이티,,2022-07-11,,37.6566200000,126.7745060000
경기도,고양시 일산동구,장항동,"41285104",생활편의형SOC,CVNTL,전기충전소,호수마을 대우1단지,CVNTL_25_41285_00076,,경기도 고양시 일산동구 중앙로 1129,경기도 고양시 일산동구 장항동 902,,,,,,,,,,,케이티,,2022-07-11,,37.6488150000,126.7794400000
경기도,고양시 일산동구,장항동,"41285104",생활편의형SOC,CVNTL,전기충전소,홈플러스 경기일산점,CVNTL_25_41285_00079,,경기도 고양시 일산동구 중앙로1275번길 64,경기도 고양시 일산동구 장항동 755,,,,,,,,,,,환경부(한국자동차환경협회),,2022-07-11,,37.6590400000,126.7688500000
경기도,고양시 일산동구,장항동,"41285104",생활편의형SOC,CVNTL,전기충전소,장항2동행정복지센터,CVNTL_25_41285_00080,,경기도 고양시 일산동구 노루목로 114,경기도 고양시 일산동구 장항동 900,,,,,,,,,,,에버온,,2022-07-11,,37.6498870000,126.7783200000
경기도,고양시 일산동구,장항동,"41285104",생활편의형SOC,CVNTL,전기충전소,동양메이저타워,CVNTL_25_41285_00124,,경기도 고양시 일산동구 중앙로 1227,경기도 고양시 일산동구 장항동 849,,,,,,,,,,,케이티,,2022-07-11,,37.6558500000,126.7748300000
경기도,고양시 일산동구,장항동,"41285104",생활편의형SOC,CVNTL,전기충전소,로데오탑상가,CVNTL_25_41285_00077,,경기도 고양시 일산동구 무궁화로 20-38,경기도 고양시 일산동구 장항동 757,,,,,,,,,,,케이티,,2022-07-11,,37.6603360000,126.7677460000
경기도,광명시,소하동,"41210104",생활편의형SOC,CVNTL,전기충전소,광명소하휴먼시아2단지,CVNTL_25_41210_00202,,경기도 광명시 소하로 38,경기도 광명시 소하동 1288,,,,,,,,,,,케이티,,2022-07-11,,37.4527360000,126.8824400000
경기도,광명시,소하동,"41210104",생활편의형SOC,CVNTL,전기충전소,소하동개운고층아파트,CVNTL_25_41210_00206,,경기도 광명시 오리로397번길 18,경기도 광명시 소하동 889-1,,,,,,,,,,,케이티,,2022-07-11,,37.4374900000,126.8773650000
경기도,광명시,소하동,"41210104",생활편의형SOC,CVNTL,전기충전소,광명시 소하1동 주민센터,CVNTL_25_41210_00207,,경기도 광명시 소하로 25,경기도 광명시 소하동 1291,,,,,,,,,,,차지비,,2022-07-11,,37.4521560000,126.8849300000
경기도,광명시,소하동,"41210104",생활편의형SOC,CVNTL,전기충전소,광명시 이마트(광명소하점),CVNTL_25_41210_00208,,경기도 광명시 소하로 97,경기도 광명시 소하동 1339-3,,,,,,,,,,,차지비,,2022-07-11,,37.4466360000,126.8846000000
경기도,광명시,소하동,"41210104",생활편의형SOC,CVNTL,전기충전소,광명시 소하2동 주민센터,CVNTL_25_41210_00209,,경기도 광명시 성채로 52,경기도 광명시 소하동 1383-1,,,,,,,,,,,차지비,,2022-07-11,,37.4321170000,126.8801960000
경기도,광명시,소하동,"41210104",생활편의형SOC,CVNTL,전기충전소,이마트 광명소하점,CVNTL_25_41210_00231,,경기도 광명시 소하로 97,경기도 광명시 소하동 1339-3,,,,,,,,,,,환경부(한국자동차환경협회),,2022-07-11,,37.4466360000,126.8846000000
경기도,광명시,소하동,"41210104",생활편의형SOC,CVNTL,전기충전소,소하동금호어울림아파트,CVNTL_25_41210_00203,,경기도 광명시 하안로 154,경기도 광명시 소하동 1273,,,,,,,,,,,케이티,,2022-07-11,,37.4518240000,126.8890100000
경기도,의정부시,용현동,"41150105",생활편의형SOC,CVNTL,전기충전소,전기안전공사 경기북부지역본부,CVNTL_25_41150_01441,,경기도 의정부시 용민로 75-19,경기도 의정부시 용현동 10-12,,,,,,,,,,,에버온,,2022-07-11,,37.7381060000,127.0860100000
경기도,의정부시,용현동,"41150105",생활편의형SOC,CVNTL,전기충전소,전기안전공사 경기북부지역본부,CVNTL_25_41150_01442,,경기도 의정부시 용민로 75-19,경기도 의정부시 용현동 10-12,,,,,,,,,,,한국전기차충전서비스,,2022-07-11,,37.7381060000,127.0860100000
경기도,의정부시,용현동,"41150105",생활편의형SOC,CVNTL,전기충전소,롯데마트 의정부점,CVNTL_25_41150_01443,,경기도 의정부시 산단로76번길 116,경기도 의정부시 용현동 527-1,,,,,,,,,,,환경부(한국자동차환경협회),,2022-07-11,,37.7427860000,127.0842360000
경기도,의정부시,용현동,"41150105",생활편의형SOC,CVNTL,전기충전소,의정부시_송산1동주민센터,CVNTL_25_41150_01471,,경기도 의정부시 민락로 13,경기도 의정부시 용현동 60-8,,,,,,,,,,,한국전기차충전서비스,,2022-07-11,,37.7310830000,127.0867840000
경기도,고양시 덕양구,화정동,"41281123",생활편의형SOC,CVNTL,전기충전소,덕양구청 주차장,CVNTL_25_41281_00068,,경기도 고양시 덕양구 화중로104번길 13,경기도 고양시 덕양구 화정동 955,,,,,,,,,,,환경부(한국자동차환경협회),,2022-07-11,,37.6373940000,126.8322700000
경기도,고양시 덕양구,화정동,"41281123",생활편의형SOC,CVNTL,전기충전소,고양시 이마트(화정점),CVNTL_25_41281_00069,,경기도 고양시 덕양구 백양로 79,경기도 고양시 덕양구 화정동 976,,,,,,,,,,,차지비,,2022-07-11,,37.6326830000,126.8334050000
경기도,안산시 상록구,일동,"41271101",생활편의형SOC,CVNTL,전기충전소,안산시_일동행정복지센터,CVNTL_25_41271_00991,,경기도 안산시 상록구 성호로 53,경기도 안산시 상록구 일동 706-3,,,,,,,,,,,한국전기차충전서비스,,2022-07-11,,37.3102870000,126.8661800000
경기도,안산시 상록구,본오동,"41271104",생활편의형SOC,CVNTL,전기충전소,안산시 상록체육관,CVNTL_25_41271_00994,,경기도 안산시 상록구 용신로 422,경기도 안산시 상록구 본오동 1111,,,,,,,,,,,지엔텔,,2022-07-11,,37.3009760000,126.8688100000
경기도,안산시 상록구,본오동,"41271104",생활편의형SOC,CVNTL,전기충전소,공영주차장116호,CVNTL_25_41271_00963,,"",경기도 안산시 상록구 본오동 876-8,,,,,,,,,,,환경부(한국자동차환경협회),,2022-07-11,,37.3042450000,126.8601900000
경기도,안산시 상록구,본오동,"41271104",생활편의형SOC,CVNTL,전기충전소,상록수역앞공영주차장,CVNTL_25_41271_00964,,"",경기도 안산시 상록구 본오동 874-7,,,,,,,,,,,한국전기차충전서비스,,2022-07-11,,37.3020170000,126.8665200000
경기도,안산시 상록구,본오동,"41271104",생활편의형SOC,CVNTL,전기충전소,이레파크,CVNTL_25_41271_00965,,경기도 안산시 상록구 본삼로 17,경기도 안산시 상록구 본오동 878-9,,,,,,,,,,,한국전기차충전서비스,,2022-07-11,,37.3012100000,126.8619400000
경기도,안산시 상록구,본오동,"41271104",생활편의형SOC,CVNTL,전기충전소,안산시_본오3동행정복지센터,CVNTL_25_41271_00966,,경기도 안산시 상록구 용신로 376,경기도 안산시 상록구 본오동 873,,,,,,,,,,,한국전기차충전서비스,,2022-07-11,,37.3014600000,126.8638400000
경기도,안산시 상록구,본오동,"41271104",생활편의형SOC,CVNTL,전기충전소,안산시_본오2동행정복지센터,CVNTL_25_41271_00967,,경기도 안산시 상록구 각골로 75,경기도 안산시 상록구 본오동 796-4,,,,,,,,,,,한국전기차충전서비스,,2022-07-11,,37.2961160000,126.8723140000
경기도,안산시 상록구,본오동,"41271104",생활편의형SOC,CVNTL,전기충전소,롯데마트 상록점,CVNTL_25_41271_00962,,경기도 안산시 상록구 반석로 8,경기도 안산시 상록구 본오동 880,,,,,,,,,,,환경부(한국자동차환경협회),,2022-07-11,,37.2945020000,126.8598600000
경기도,안산시 상록구,본오동,"41271104",생활편의형SOC,CVNTL,전기충전소,사이동 커뮤니센터,CVNTL_25_41271_00990,,경기도 안산시 상록구 선진로 92,경기도 안산시 상록구 사동 1502,,,,,,,,,,,한국전력,,2022-07-11,,37.2786000000,126.8516900000
경기도,안산시 상록구,본오동,"41271104",생활편의형SOC,CVNTL,전기충전소,아리아나모텔,CVNTL_25_41271_00992,,경기도 안산시 상록구 석호로3길 8,경기도 안산시 상록구 본오동 781-3,,,,,,,,,,,한국전기차충전서비스,,2022-07-11,,37.2940180000,126.8715700000
경기도,안산시 상록구,본오동,"41271104",생활편의형SOC,CVNTL,전기충전소,"0",CVNTL_25_41271_00993,,경기도 안산시 상록구 오목로 171,경기도 안산시 상록구 본오동 730-5,,,,,,,,,,,기아자동차,,2022-07-11,,37.2917820000,126.8768160000
경기도,고양시 일산서구,덕이동,"41287105",생활편의형SOC,CVNTL,전기충전소,하이파크시티일산파밀리에4단지,CVNTL_25_41287_00143,,경기도 고양시 일산서구 하이파크3로 61,경기도 고양시 일산서구 덕이동 1535,,,,,,,,,,,케이티,,2022-07-11,,37.6968700000,126.7511440000
경기도,고양시 일산서구,덕이동,"41287105",생활편의형SOC,CVNTL,전기충전소,(주)자일일산서비스,CVNTL_25_41287_00144,,경기도 고양시 일산서구 경의로 848,경기도 고양시 일산서구 덕이동 238-2,,,,,,,,,,,케이티,,2022-07-11,,37.6931200000,126.7598600000
경기도,고양시 일산서구,덕이동,"41287105",생활편의형SOC,CVNTL,전기충전소,하이파크시티일산파밀리에2단지,CVNTL_25_41287_00145,,경기도 고양시 일산서구 하이파크3로 11,경기도 고양시 일산서구 덕이동 411,,,,,,,,,,,케이티,,2022-07-11,,37.6928300000,126.7535800000
경기도,고양시 일산서구,덕이동,"41287105",생활편의형SOC,CVNTL,전기충전소,(주) 한일카독크,CVNTL_25_41287_00146,,경기도 고양시 일산서구 덕이로 48,경기도 고양시 일산서구 덕이동 450,,,,,,,,,,,에스트래픽,,2022-07-11,,37.6903800000,126.7546100000
경기도,고양시 일산서구,덕이동,"41287105",생활편의형SOC,CVNTL,전기충전소,이마트24일산덕로점,CVNTL_25_41287_00147,,경기도 고양시 일산서구 덕산로 253,경기도 고양시 일산서구 덕이동 1256-36,,,,,,,,,,,케이티,,2022-07-11,,37.6954600000,126.7309800000
경기도,의정부시,신곡동,"41150104",생활편의형SOC,CVNTL,전기충전소,롯데슈퍼 신곡점,CVNTL_25_41150_01473,,경기도 의정부시 동일로 583,경기도 의정부시 신곡동 560,,,,,,,,,,,한국전기차충전서비스,,2022-07-11,,37.7402300000,127.0562000000
경기도,의정부시,신곡동,"41150104",생활편의형SOC,CVNTL,전기충전소,신곡동극동스타클래스,CVNTL_25_41150_01444,,경기도 의정부시 시민로317번길 15,경기도 의정부시 신곡동 167-20,,,,,,,,,,,케이티,,2022-07-11,,37.7383540000,127.0706100000
경기도,의정부시,신곡동,"41150104",생활편의형SOC,CVNTL,전기충전소,신곡동삼성래미안아파트,CVNTL_25_41150_01445,,경기도 의정부시 장곡로628번길 21,경기도 의정부시 신곡동 767-1,,,,,,,,,,,케이티,,2022-07-11,,37.7501950000,127.0740100000
경기도,의정부시,신곡동,"41150104",생활편의형SOC,CVNTL,전기충전소,의정부시_신곡1동행정복지센터,CVNTL_25_41150_01472,,경기도 의정부시 발곡로 17,경기도 의정부시 신곡동 716-1,,,,,,,,,,,한국전기차충전서비스,,2022-07-11,,37.7315400000,127.0567860000
경기도,의정부시,신곡동,"41150104",생활편의형SOC,CVNTL,전기충전소,의정부과학도서관,CVNTL_25_41150_01474,,경기도 의정부시 추동로124번길 52,경기도 의정부시 신곡동 124-1,,,,,,,,,,,한국전력,,2022-07-11,,37.7447430000,127.0693100000
경기도,의정부시,신곡동,"41150104",생활편의형SOC,CVNTL,전기충전소,의정부시_신곡2동주민센터,CVNTL_25_41150_01475,,경기도 의정부시 추동로23번길 7,경기도 의정부시 신곡동 672,,,,,,,,,,,한국전기차충전서비스,,2022-07-11,,37.7436600000,127.0579600000
경기도,의정부시,신곡동,"41150104",생활편의형SOC,CVNTL,전기충전소,경기도청 북부청사,CVNTL_25_41150_01476,,경기도 의정부시 청사로 1,경기도 의정부시 신곡동 800,,,,,,,,,,,한국전기차충전서비스,,2022-07-11,,37.7471540000,127.0722800000
경기도,동두천시,상패동,"41250112",생활편의형SOC,CVNTL,전기충전소,상패동행정복지센터,CVNTL_25_41250_00461,,경기도 동두천시 어수로 8,경기도 동두천시 상패동 122-2,,,,,,,,,,,한국전기차충전서비스,,2022-07-11,,37.9052900000,127.0443950000
경기도,동두천시,하봉암동,"41250110",생활편의형SOC,CVNTL,전기충전소,동두천시 k-water 동두천수도관리단 ,CVNTL_25_41250_00450,,경기도 동두천시 평화로3208번길 1,경기도 동두천시 하봉암동 155,,,,,,,,,,,차지비,,2022-07-11,,37.9742100000,127.0672500000
경기도,부천시,옥길동,"41190115",생활편의형SOC,CVNTL,전기충전소,옥길주유소,CVNTL_25_41190_00474,,경기도 부천시 옥길로 6,경기도 부천시 옥길동 767-2,,,,,,,,,,,GS칼텍스,,2022-07-11,,37.4604760000,126.8139200000
경기도,부천시,옥길동,"41190115",생활편의형SOC,CVNTL,전기충전소,남부수자원생태공원,CVNTL_25_41190_00475,,경기도 부천시 연동로 89,경기도 부천시 옥길동 454-1,,,,,,,,,,,환경부(한국자동차환경협회),,2022-07-11,,37.4702260000,126.8277300000
경기도,부천시,옥길동,"41190115",생활편의형SOC,CVNTL,전기충전소,부천더휴제이드카운티일단지,CVNTL_25_41190_00476,,경기도 부천시 양지로 234-10,경기도 부천시 옥길동 742-1,,,,,,,,,,,케이티,,2022-07-11,,37.4661100000,126.8250960000
경기도,안산시 상록구,수암동,"41271113",생활편의형SOC,CVNTL,전기충전소,안산시_안산동행정복지센터,CVNTL_25_41271_00969,,경기도 안산시 상록구 장하로 315,경기도 안산시 상록구 수암동 506,,,,,,,,,,,한국전기차충전서비스,,2022-07-11,,37.3617670000,126.8732150000
경기도,안산시 상록구,수암동,"41271113",생활편의형SOC,CVNTL,전기충전소,안산시 수암봉공영주차장,CVNTL_25_41271_00968,,경기도 안산시 상록구 수암3길 39,경기도 안산시 상록구 수암동 280-2,,,,,,,,,,,지엔텔,,2022-07-11,,37.3643500000,126.8832800000
경기도,안산시 상록구,수암동,"41271113",생활편의형SOC,CVNTL,전기충전소,"0",CVNTL_25_41271_00970,,경기도 안산시 상록구 원당골1길 23-3,경기도 안산시 상록구 수암동 467-3,,,,,,,,,,,한국전기차충전서비스,,2022-07-11,,37.3643300000,126.8771500000
경기도,안산시 단원구,대부동동,"41273110",생활편의형SOC,CVNTL,전기충전소,안산시 시화나래휴게소,CVNTL_25_41273_00912,,경기도 안산시 단원구 대부황금로 1901,경기도 안산시 단원구 대부동동 2098-1,,,,,,,,,,,차지비,,2022-07-11,,37.3105660000,126.6056900000
경기도,고양시 일산동구,마두동,"41285105",생활편의형SOC,CVNTL,전기충전소,일산동구청,CVNTL_25_41285_00085,,경기도 고양시 일산동구 중앙로 1256,경기도 고양시 일산동구 마두동 815,,,,,,,,,,,환경부(한국자동차환경협회),,2022-07-11,,37.6588800000,126.7749560000
경기도,고양시 일산동구,마두동,"41285105",생활편의형SOC,CVNTL,전기충전소,마두2동 행정복지센터,CVNTL_25_41285_00086,,경기도 고양시 일산동구 강송로 166,경기도 고양시 일산동구 마두동 782,,,,,,,,,,,에버온,,2022-07-11,,37.6535870000,126.7844600000
경기도,고양시 일산동구,마두동,"41285105",생활편의형SOC,CVNTL,전기충전소,강촌마을3단지,CVNTL_25_41285_00084,,경기도 고양시 일산동구 강송로 149,경기도 고양시 일산동구 마두동 787,,,,,,,,,,,케이티,,2022-07-11,,37.6526870000,126.7836150000
경기도,성남시 분당구,수내동,"41135102",생활편의형SOC,CVNTL,전기충전소,㈜경동,CVNTL_25_41135_00611,,경기도 성남시 분당구 수내로46번길 4,경기도 성남시 분당구 수내동 4-4,,,,,,,,,,,파워큐브,,2022-07-11,,37.3807900000,127.1171400000
경기도,성남시 분당구,수내동,"41135102",생활편의형SOC,CVNTL,전기충전소,성남시 수내1동주민센터,CVNTL_25_41135_00547,,경기도 성남시 분당구 내정로173번길 21,경기도 성남시 분당구 수내동 30,,,,,,,,,,,차지비,,2022-07-11,,37.3755400000,127.1179700000
경기도,성남시 분당구,수내동,"41135102",생활편의형SOC,CVNTL,전기충전소,삼평프라자,CVNTL_25_41135_00549,,경기도 성남시 분당구 불정로 254,경기도 성남시 분당구 수내동 88-2,,,,,,,,,,,한국전기차충전서비스,,2022-07-11,,37.3663980000,127.1268160000
경기도,성남시 분당구,수내동,"41135102",생활편의형SOC,CVNTL,전기충전소,수내역환승주차장,CVNTL_25_41135_00550,,경기도 성남시 분당구 황새울로200번길 40,경기도 성남시 분당구 수내동 16-1,,,,,,,,,,,에스트래픽,,2022-07-11,,37.3774900000,127.1144000000
경기도,성남시 분당구,수내동,"41135102",생활편의형SOC,CVNTL,전기충전소,수내동 공영주차장,CVNTL_25_41135_00552,,경기도 성남시 분당구 발이봉북로 7,경기도 성남시 분당구 수내동 119-1,,,,,,,,,,,에스트래픽,,2022-07-11,,37.3667680000,127.1279500000
경기도,성남시 분당구,수내동,"41135102",생활편의형SOC,CVNTL,전기충전소,성남 한솔인피니티,CVNTL_25_41135_00554,,경기도 성남시 분당구 황새울로200번길 22,경기도 성남시 분당구 수내동 16-7,,,,,,,,,,,이카플러그,,2022-07-11,,37.3763700000,127.1127700000
경기도,성남시 분당구,수내동,"41135102",생활편의형SOC,CVNTL,전기충전소,분당구청,CVNTL_25_41135_00555,,경기도 성남시 분당구 분당로 50,경기도 성남시 분당구 수내동 1,,,,,,,,,,,한국전기차충전서비스,,2022-07-11,,37.3826260000,127.1191400000
경기도,성남시 분당구,수내동,"41135102",생활편의형SOC,CVNTL,전기충전소,성남 삼라마이다스빌관리단,CVNTL_25_41135_00553,,경기도 성남시 분당구 황새울로200번길 32,경기도 성남시 분당구 수내동 16-4,,,,,,,,,,,이카플러그,,2022-07-11,,37.3769600000,127.1136400000
경기도,성남시 분당구,수내동,"41135102",생활편의형SOC,CVNTL,전기충전소,성남시 분당구청,CVNTL_25_41135_00548,,경기도 성남시 분당구 분당로 50,경기도 성남시 분당구 수내동 1,,,,,,,,,,,차지비,,2022-07-11,,37.3826260000,127.1191400000
경기도,부천시,약대동,"41190105",생활편의형SOC,CVNTL,전기충전소,EV충전소 SK중동대로주유소 (ev Most),CVNTL_25_41190_00469,,경기도 부천시 평천로 639,경기도 부천시 약대동 192-3,,,,,,,,,,,evMost,,2022-07-11,,37.5153430000,126.7617950000
경기도,부천시,약대동,"41190105",생활편의형SOC,CVNTL,전기충전소,부천시_약대동주민센터,CVNTL_25_41190_00477,,경기도 부천시 수도로 44,경기도 부천시 약대동 123,,,,,,,,,,,한국전기차충전서비스,,2022-07-11,,37.5133100000,126.7713100000
경기도,부천시,약대동,"41190105",생활편의형SOC,CVNTL,전기충전소,기아오토큐 약대점,CVNTL_25_41190_00478,,경기도 부천시 중동로 362,경기도 부천시 약대동 148-2,,,,,,,,,,,에스트래픽,,2022-07-11,,37.5119360000,126.7702000000
경기도,부천시,원미동,"41190101",생활편의형SOC,CVNTL,전기충전소,부천시_원미2동주민센터,CVNTL_25_41190_00479,,경기도 부천시 조종로36번길 26,경기도 부천시 원미동 126-4,,,,,,,,,,,한국전기차충전서비스,,2022-07-11,,37.4919400000,126.7882900000
경기도,부천시,원미동,"41190101",생활편의형SOC,CVNTL,전기충전소,한국국토정보공사 부천지사,CVNTL_25_41190_00480,,경기도 부천시 부천로136번길 59,경기도 부천시 원미동 64-10,,,,,,,,,,,대영채비,,2022-07-11,,37.4959560000,126.7888200000
경기도,안산시 상록구,사동,"41271103",생활편의형SOC,CVNTL,전기충전소,안산호수공원 3 주차장,CVNTL_25_41271_00975,,경기도 안산시 상록구 광덕대로 70,경기도 안산시 상록구 사동 1513,,,,,,,,,,,환경부(한국자동차환경협회),,2022-07-11,,37.3013600000,126.8268000000
경기도,안산시 상록구,사동,"41271103",생활편의형SOC,CVNTL,전기충전소,안산시 감골시민홀,CVNTL_25_41271_00976,,경기도 안산시 상록구 석호로 226,경기도 안산시 상록구 사동 1342,,,,,,,,,,,지엔텔,,2022-07-11,,37.2933600000,126.8557500000
경기도,안산시 상록구,사동,"41271103",생활편의형SOC,CVNTL,전기충전소,안산시_사이동행정복지센터,CVNTL_25_41271_00978,,경기도 안산시 상록구 감골1로 52,경기도 안산시 상록구 사동 1344-5,,,,,,,,,,,한국전기차충전서비스,,2022-07-11,,37.2897950000,126.8518700000
경기도,안산시 상록구,사동,"41271103",생활편의형SOC,CVNTL,전기충전소,안산시_해양동행정복지센터,CVNTL_25_41271_00979,,경기도 안산시 상록구 해양로 8,경기도 안산시 상록구 사동 1511-1,,,,,,,,,,,한국전기차충전서비스,,2022-07-11,,37.2947100000,126.8200700000
경기도,안산시 상록구,사동,"41271103",생활편의형SOC,CVNTL,전기충전소,안산고잔6차푸르지오,CVNTL_25_41271_00980,,경기도 안산시 상록구 해양1로 11,경기도 안산시 상록구 사동 1512,,,,,,,,,,,이카플러그,,2022-07-11,,37.2961300000,126.8239440000
경기도,안산시 상록구,사동,"41271103",생활편의형SOC,CVNTL,전기충전소,안산시 호수공원실내수영장,CVNTL_25_41271_00981,,경기도 안산시 상록구 광덕대로 70,경기도 안산시 상록구 사동 1513,,,,,,,,,,,지엔텔,,2022-07-11,,37.3013600000,126.8268000000
경기도,안산시 상록구,사동,"41271103",생활편의형SOC,CVNTL,전기충전소,푸른마을고잔주공5단지,CVNTL_25_41271_00971,,경기도 안산시 상록구 광덕4로 460,경기도 안산시 상록구 사동 1536,,,,,,,,,,,케이티,,2022-07-11,,37.3038300000,126.8552600000
경기도,안산시 상록구,사동,"41271103",생활편의형SOC,CVNTL,전기충전소,안산사동자동차공업사,CVNTL_25_41271_00977,,경기도 안산시 상록구 선진로 30,경기도 안산시 상록구 사동 1494-1,,,,,,,,,,,에스트래픽,,2022-07-11,,37.2792550000,126.8468200000
경기도,안산시 상록구,사동,"41271103",생활편의형SOC,CVNTL,전기충전소,한국전기연구원,CVNTL_25_41271_00972,,경기도 안산시 상록구 항가울로 111,경기도 안산시 상록구 사동 1271-19,,,,,,,,,,,파워큐브,,2022-07-11,,37.2909280000,126.8423700000
경기도,안산시 상록구,사동,"41271103",생활편의형SOC,CVNTL,전기충전소,한국지엠안산서비스센터,CVNTL_25_41271_00973,,경기도 안산시 상록구 선진5길 37,경기도 안산시 상록구 사동 1485-6,,,,,,,,,,,케이티,,2022-07-11,,37.2810200000,126.8486300000
경기도,안산시 상록구,사동,"41271103",생활편의형SOC,CVNTL,전기충전소,스위스모텔,CVNTL_25_41271_00974,,경기도 안산시 상록구 영화5길 1,경기도 안산시 상록구 사동 1480-11,,,,,,,,,,,제주전기자동차서비스,,2022-07-11,,37.2798300000,126.8494800000
경기도,안산시 상록구,사동,"41271103",생활편의형SOC,CVNTL,전기충전소,안산시U정보센터,CVNTL_25_41271_00995,,경기도 안산시 상록구 항가울로 200,경기도 안산시 상록구 사동 1586-3,,,,,,,,,,,한국전기차충전서비스,,2022-07-11,,37.2982520000,126.8450100000
경기도,안산시 상록구,사동,"41271103",생활편의형SOC,CVNTL,전기충전소,안산시_사동행정복지센터,CVNTL_25_41271_00996,,경기도 안산시 상록구 석호로 171,경기도 안산시 상록구 사동 1304,,,,,,,,,,,한국전기차충전서비스,,2022-07-11,,37.2970730000,126.8510060000
경기도,안산시 상록구,사동,"41271103",생활편의형SOC,CVNTL,전기충전소,안산상록경찰서,CVNTL_25_41271_00982,,경기도 안산시 상록구 차돌배기로 10,경기도 안산시 상록구 사동 1586-4,,,,,,,,,,,에스트래픽,,2022-07-11,,37.2991400000,126.8456950000
경기도,안산시 상록구,사동,"41271103",생활편의형SOC,CVNTL,전기충전소,경기테크노파크,CVNTL_25_41271_00989,,경기도 안산시 상록구 해안로 705,경기도 안산시 상록구 사동 1271-11,,,,,,,,,,,환경부(한국자동차환경협회),,2022-07-11,,37.2911200000,126.8299940000
경기도,평택시,신장동,"41220112",생활편의형SOC,CVNTL,전기충전소,신장2동주민센터,CVNTL_25_41220_01636,,경기도 평택시 밀월로21번길 7,경기도 평택시 신장동 280-23,,,,,,,,,,,에버온,,2022-07-11,,37.0764850000,127.0524300000
경기도,수원시 영통구,이의동,"41117103",생활편의형SOC,CVNTL,전기충전소,수원시 이마트(광교점),CVNTL_25_41117_00735,,경기도 수원시 영통구 광교로 191,경기도 수원시 영통구 이의동 1240,,,,,,,,,,,차지비,,2022-07-11,,37.2963450000,127.0469500000
경기도,수원시 영통구,이의동,"41117103",생활편의형SOC,CVNTL,전기충전소,수원시 광교1동 주민센터,CVNTL_25_41117_00736,,경기도 수원시 영통구 도청로89번길 20,경기도 수원시 영통구 이의동 1350,,,,,,,,,,,차지비,,2022-07-11,,37.2901950000,127.0474500000
경기도,수원시 영통구,이의동,"41117103",생활편의형SOC,CVNTL,전기충전소,이마트 광교점(야외1층 주차장),CVNTL_25_41117_00737,,경기도 수원시 영통구 광교로 191,경기도 수원시 영통구 이의동 1240,,,,,,,,,,,에스트래픽,,2022-07-11,,37.2963450000,127.0469500000
경기도,수원시 영통구,이의동,"41117103",생활편의형SOC,CVNTL,전기충전소,시은소교회,CVNTL_25_41117_00738,,경기도 수원시 영통구 센트럴타운로100번길 33,경기도 수원시 영통구 이의동 419-2,,,,,,,,,,,한국전기차충전서비스,,2022-07-11,,37.2934950000,127.0512160000
경기도,수원시 영통구,이의동,"41117103",생활편의형SOC,CVNTL,전기충전소,경기도경제과학진흥원,CVNTL_25_41117_00739,,경기도 수원시 영통구 광교로 107,경기도 수원시 영통구 이의동 906-5,,,,,,,,,,,한국전기차충전서비스,,2022-07-11,,37.2919000000,127.0431400000
경기도,수원시 영통구,이의동,"41117103",생활편의형SOC,CVNTL,전기충전소,롯데마트 광교점,CVNTL_25_41117_00740,,경기도 수원시 영통구 센트럴타운로 85,경기도 수원시 영통구 이의동 1332,,,,,,,,,,,환경부(한국자동차환경협회),,2022-07-11,,37.2905600000,127.0505750000
경기도,수원시 영통구,이의동,"41117103",생활편의형SOC,CVNTL,전기충전소,이의동센트럴프라자,CVNTL_25_41117_00741,,경기도 수원시 영통구 센트럴타운로 106,경기도 수원시 영통구 이의동 1322-5,,,,,,,,,,,케이티,,2022-07-11,,37.2927400000,127.0501560000
경기도,수원시 영통구,이의동,"41117103",생활편의형SOC,CVNTL,전기충전소,경기전력관리처,CVNTL_25_41117_00742,,경기도 수원시 영통구 창룡대로 236-31,경기도 수원시 영통구 이의동 907-1,,,,,,,,,,,한국전력,,2022-07-11,,37.2936740000,127.0374300000
경기도,광명시,광명동,"41210101",생활편의형SOC,CVNTL,전기충전소,광명시 광명도서관,CVNTL_25_41210_00210,,경기도 광명시 원광명안로 48,경기도 광명시 광명동 495-1,,,,,,,,,,,한국전기차충전서비스,,2022-07-11,,37.4651700000,126.8514300000
경기도,광명시,광명동,"41210101",생활편의형SOC,CVNTL,전기충전소,광명시 광명5동 주민센터,CVNTL_25_41210_00212,,경기도 광명시 너부대로35번길 20,경기도 광명시 광명동 170,,,,,,,,,,,차지비,,2022-07-11,,37.4787640000,126.8475000000
경기도,광명시,광명동,"41210101",생활편의형SOC,CVNTL,전기충전소,광명전통시장 공영주차장,CVNTL_25_41210_00213,,경기도 광명시 광명로 938,경기도 광명시 광명동 102-4,,,,,,,,,,,한국전기차충전서비스,,2022-07-11,,37.4823270000,126.8561100000
경기도,광명시,광명동,"41210101",생활편의형SOC,CVNTL,전기충전소,광명시 광명6동 주민센터,CVNTL_25_41210_00214,,경기도 광명시 광명로791번길 6,경기도 광명시 광명동 786,,,,,,,,,,,차지비,,2022-07-11,,37.4710900000,126.8486400000
경기도,광명시,광명동,"41210101",생활편의형SOC,CVNTL,전기충전소,광명시 경륜경정사업본부 ,CVNTL_25_41210_00232,,경기도 광명시 광명로 721,경기도 광명시 광명동 678,,,,,,,,,,,차지비,,2022-07-11,,37.4677850000,126.8449500000
경기도,광명시,철산동,"41210102",생활편의형SOC,CVNTL,전기충전소,광명시 철산도서관,CVNTL_25_41210_00220,,경기도 광명시 철산로 56,경기도 광명시 철산동 449-1,,,,,,,,,,,한국전기차충전서비스,,2022-07-11,,37.4770000000,126.8722100000
경기도,광명시,철산동,"41210102",생활편의형SOC,CVNTL,전기충전소,광명시청,CVNTL_25_41210_00221,,경기도 광명시 시청로 20,경기도 광명시 철산동 222-1,,,,,,,,,,,한국전기차충전서비스,,2022-07-11,,37.4782100000,126.8647160000
경기도,평택시,청북읍,"41220259",생활편의형SOC,CVNTL,전기충전소,GS25 청북IC점,CVNTL_25_41220_01638,,경기도 평택시 청북읍 서해로 1758,경기도 평택시 청북읍 현곡리 342-13,,,,,,,,,,,한국전기차충전서비스,,2022-07-11,,37.0470920000,126.9327100000
경기도,평택시,청북읍,"41220259",생활편의형SOC,CVNTL,전기충전소,청북읍사무소,CVNTL_25_41220_01639,,경기도 평택시 청북읍 청원로 2,경기도 평택시 청북읍 현곡리 293-4,,,,,,,,,,,에버온,,2022-07-11,,37.0401270000,126.9345400000
경기도,부천시,소사본동,"41190110",생활편의형SOC,CVNTL,전기충전소,소사어울림마당 주차장,CVNTL_25_41190_00483,,경기도 부천시 경인옛로 73,경기도 부천시 소사본동 64,,,,,,,,,,,환경부(한국자동차환경협회),,2022-07-11,,37.4800500000,126.7999500000
경기도,부천시,소사본동,"41190110",생활편의형SOC,CVNTL,전기충전소,부천시_소사본3동주민센터,CVNTL_25_41190_00481,,경기도 부천시 은성로68번길 56,경기도 부천시 소사본동 200-26,,,,,,,,,,,한국전기차충전서비스,,2022-07-11,,37.4728130000,126.7980900000
경기도,부천시,범박동,"41190112",생활편의형SOC,CVNTL,전기충전소,부천범박힐스테이트2단지,CVNTL_25_41190_00484,,경기도 부천시 범안로 78,경기도 부천시 범박동 153-2,,,,,,,,,,,케이티,,2022-07-11,,37.4743960000,126.8078100000
경기도,부천시,범박동,"41190112",생활편의형SOC,CVNTL,전기충전소,부천시_범박동주민센터,CVNTL_25_41190_00485,,경기도 부천시 범안로129번길 17,경기도 부천시 범박동 155-4,,,,,,,,,,,한국전기차충전서비스,,2022-07-11,,37.4706880000,126.8097900000
경기도,평택시,팽성읍,"41220250",생활편의형SOC,CVNTL,전기충전소,팽성읍행정복지센터,CVNTL_25_41220_01640,,경기도 평택시 팽성읍 동서촌로 89,경기도 평택시 팽성읍 객사리 170-2,,,,,,,,,,,에스트래픽,,2022-07-11,,36.9651950000,127.0623300000
경기도,평택시,팽성읍,"41220250",생활편의형SOC,CVNTL,전기충전소,투썸플레이스(평택팽성점),CVNTL_25_41220_01641,,경기도 평택시 팽성읍 팽성송화로 153,경기도 평택시 팽성읍 송화리 787-1,,,,,,,,,,,대영채비,,2022-07-11,,36.9606600000,127.0583950000
경기도,평택시,서정동,"41220101",생활편의형SOC,CVNTL,전기충전소,평택시 송탄출장소,CVNTL_25_41220_01642,,경기도 평택시 경기대로 1366,경기도 평택시 서정동 800,,,,,,,,,,,한국전기차충전서비스,,2022-07-11,,37.0666400000,127.0651500000
경기도,평택시,서정동,"41220101",생활편의형SOC,CVNTL,전기충전소,평택 중앙동주민센터,CVNTL_25_41220_01679,,경기도 평택시 서정역로 16,경기도 평택시 서정동 342,,,,,,,,,,,에버온,,2022-07-11,,37.0554800000,127.0559540000
경기도,평택시,장당동,"41220102",생활편의형SOC,CVNTL,전기충전소,홈플러스 송탄점,CVNTL_25_41220_01643,,경기도 평택시 경기대로 1103,경기도 평택시 장당동 390-1,,,,,,,,,,,환경부(한국자동차환경협회),,2022-07-11,,37.0450480000,127.0594900000
경기도,평택시,장당동,"41220102",생활편의형SOC,CVNTL,전기충전소,효명고등학교,CVNTL_25_41220_01644,,경기도 평택시 송탄로 51,경기도 평택시 장당동 470,,,,,,,,,,,지엔텔,,2022-07-11,,37.0496000000,127.0549550000
경기도,평택시,안중읍,"41220253",생활편의형SOC,CVNTL,전기충전소,무인텔핫,CVNTL_25_41220_01647,,경기도 평택시 안중읍 대반3길 1-11,경기도 평택시 안중읍 대반리 222-11,,,,,,,,,,,제주전기자동차서비스,,2022-07-11,,36.9859430000,126.9508500000
경기도,평택시,안중읍,"41220253",생활편의형SOC,CVNTL,전기충전소,홈플러스 평택안중점,CVNTL_25_41220_01648,,경기도 평택시 안중읍 서동대로 1489,경기도 평택시 안중읍 현화리 637-19,,,,,,,,,,,한국전력,,2022-07-11,,36.9901580000,126.9163900000
경기도,평택시,안중읍,"41220253",생활편의형SOC,CVNTL,전기충전소,안중제일신용협동조합,CVNTL_25_41220_01649,,경기도 평택시 안중읍 안현로 381,경기도 평택시 안중읍 안중리 307,,,,,,,,,,,대영채비,,2022-07-11,,36.9844100000,126.9294400000
경기도,평택시,진위면,"41220310",생활편의형SOC,CVNTL,전기충전소,진위면사무소,CVNTL_25_41220_01650,,경기도 평택시 진위면 봉남길 61,경기도 평택시 진위면 봉남리 229,,,,,,,,,,,에버온,,2022-07-11,,37.0999260000,127.0907700000
경기도,평택시,포승읍,"41220256",생활편의형SOC,CVNTL,전기충전소,평택항마린센터,CVNTL_25_41220_01651,,경기도 평택시 포승읍 평택항만길 73,경기도 평택시 포승읍 만호리 570-1,,,,,,,,,,,에스트래픽,,2022-07-11,,36.9572680000,126.8485000000
경기도,평택시,포승읍,"41220256",생활편의형SOC,CVNTL,전기충전소,경기평택 샤롯캐슬호텔,CVNTL_25_41220_01652,,경기도 평택시 포승읍 평택항로184번길 3-14,경기도 평택시 포승읍 만호리 574-2,,,,,,,,,,,에버온,,2022-07-11,,36.9764400000,126.8429100000
경기도,평택시,포승읍,"41220256",생활편의형SOC,CVNTL,전기충전소,포승읍사무소,CVNTL_25_41220_01653,,경기도 평택시 포승읍 서동대로 1174-16,경기도 평택시 포승읍 방림리 52-13,,,,,,,,,,,에버온,,2022-07-11,,36.9828500000,126.8853000000
경기도,평택시,포승읍,"41220256",생활편의형SOC,CVNTL,전기충전소,평택시 평택항만청,CVNTL_25_41220_01657,,경기도 평택시 포승읍 평택항만길 145,경기도 평택시 포승읍 만호리 564,,,,,,,,,,,차지비,,2022-07-11,,36.9646500000,126.8420700000
경기도,평택시,포승읍,"41220256",생활편의형SOC,CVNTL,전기충전소,평택세관 주차장,CVNTL_25_41220_01658,,경기도 평택시 포승읍 평택항만길 45,경기도 평택시 포승읍 만호리 340-3,,,,,,,,,,,에스트래픽,,2022-07-11,,36.9589270000,126.8507700000
경기도,평택시,포승읍,"41220256",생활편의형SOC,CVNTL,전기충전소,포승읍 행정복지센터,CVNTL_25_41220_01655,,경기도 평택시 포승읍 서동대로 1174-16,경기도 평택시 포승읍 방림리 52-13,,,,,,,,,,,에스트래픽,,2022-07-11,,36.9828500000,126.8853000000
경기도,평택시,포승읍,"41220256",생활편의형SOC,CVNTL,전기충전소,평택시 투데이모텔,CVNTL_25_41220_01656,,경기도 평택시 포승읍 직산동길 21-7,경기도 평택시 포승읍 희곡리 627-15,,,,,,,,,,,차지비,,2022-07-11,,36.9483380000,126.8711200000
경기도,평택시,포승읍,"41220256",생활편의형SOC,CVNTL,전기충전소,평택시 평택국제자동차부두,CVNTL_25_41220_01659,,경기도 평택시 포승읍 평택항만길 399-16,경기도 평택시 포승읍 원정리 1234,,,,,,,,,,,차지비,,2022-07-11,,36.9829060000,126.8293150000
경기도,평택시,포승읍,"41220256",생활편의형SOC,CVNTL,전기충전소,CU 평택석정점,CVNTL_25_41220_01660,,경기도 평택시 포승읍 포승장안로 96,경기도 평택시 포승읍 석정리 127,,,,,,,,,,,에스트래픽,,2022-07-11,,36.9969330000,126.8987960000
경기도,평택시,포승읍,"41220256",생활편의형SOC,CVNTL,전기충전소,원정보건진료소,CVNTL_25_41220_01661,,경기도 평택시 포승읍 포승원정길 23,경기도 평택시 포승읍 원정리 391-22,,,,,,,,,,,에스트래픽,,2022-07-11,,36.9946370000,126.8410200000
경기도,평택시,포승읍,"41220256",생활편의형SOC,CVNTL,전기충전소,대원파크모텔,CVNTL_25_41220_01662,,경기도 평택시 포승읍 포승향남로 57,경기도 평택시 포승읍 도곡리 884-5,,,,,,,,,,,지엔텔,,2022-07-11,,36.9841840000,126.8750700000
경기도,평택시,포승읍,"41220256",생활편의형SOC,CVNTL,전기충전소,한국가스공사 평택기지본부,CVNTL_25_41220_01680,,경기도 평택시 포승읍 남양만로 175-88,경기도 평택시 포승읍 원정리 1,,,,,,,,,,,한국전기차충전서비스,,2022-07-11,,37.0033760000,126.7887600000
경기도,평택시,현덕면,"41220370",생활편의형SOC,CVNTL,전기충전소,평택시 블루힐모텔,CVNTL_25_41220_01663,,경기도 평택시 현덕면 권관길 11,경기도 평택시 현덕면 권관리 634-24,,,,,,,,,,,차지비,,2022-07-11,,36.9210170000,126.9070300000
경기도,평택시,현덕면,"41220370",생활편의형SOC,CVNTL,전기충전소,현덕면사무소,CVNTL_25_41220_01681,,경기도 평택시 현덕면 인광길 84,경기도 평택시 현덕면 인광리 402-12,,,,,,,,,,,에버온,,2022-07-11,,36.9670940000,126.9212000000
경기도,고양시 일산동구,풍동,"41285107",생활편의형SOC,CVNTL,전기충전소,풍동숲속마을7단지,CVNTL_25_41285_00087,,경기도 고양시 일산동구 숲속마을1로 116,경기도 고양시 일산동구 풍동 1261,,,,,,,,,,,케이티,,2022-07-11,,37.6712230000,126.8014000000
경기도,고양시 일산동구,풍동,"41285107",생활편의형SOC,CVNTL,전기충전소,숲속마을9단지아파트,CVNTL_25_41285_00088,,경기도 고양시 일산동구 숲속마을로 195,경기도 고양시 일산동구 풍동 1252,,,,,,,,,,,케이티,,2022-07-11,,37.6732250000,126.8034700000
경기도,고양시 일산동구,풍동,"41285107",생활편의형SOC,CVNTL,전기충전소,"21세기현대기아자동차회사",CVNTL_25_41285_00089,,경기도 고양시 일산동구 고양대로 900-28,경기도 고양시 일산동구 풍동 638-2,,,,,,,,,,,기아자동차,,2022-07-11,,37.6770320000,126.7948600000
경기도,고양시 일산동구,풍동,"41285107",생활편의형SOC,CVNTL,전기충전소,풍동제3공영주차장,CVNTL_25_41285_00090,,경기도 고양시 일산동구 숲속마을로 14-7,경기도 고양시 일산동구 풍동 1276,,,,,,,,,,,한국전기차충전서비스,,2022-07-11,,37.6675720000,126.8009700000
경기도,동두천시,보산동,"41250106",생활편의형SOC,CVNTL,전기충전소,보산동 행정복지센터,CVNTL_25_41250_00451,,경기도 동두천시 싸리말로 28,경기도 동두천시 보산동 314-5,,,,,,,,,,,에버온,,2022-07-11,,37.9177320000,127.0612500000
경기도,안성시,영동,"41550103",생활편의형SOC,CVNTL,전기충전소,안성1동주민센터,CVNTL_25_41550_01001,,경기도 안성시 낙원길 95,경기도 안성시 영동 410-1,,,,,,,,,,,에버온,,2022-07-11,,37.0056460000,127.2742540000
경기도,안성시,현수동,"41550131",생활편의형SOC,CVNTL,전기충전소,안성맞춤 아트홀,CVNTL_25_41550_00999,,경기도 안성시 발화대길 21,경기도 안성시 현수동 619,,,,,,,,,,,한국전기차충전서비스,,2022-07-11,,37.0011140000,127.2792000000
경기도,안성시,현수동,"41550131",생활편의형SOC,CVNTL,전기충전소,유림종합건설,CVNTL_25_41550_00998,,경기도 안성시 강변남로 84,경기도 안성시 현수동 218-5,,,,,,,,,,,대영채비,,2022-07-11,,37.0020100000,127.2766600000
경기도,부천시,괴안동,"41190113",생활편의형SOC,CVNTL,전기충전소,부천시_역곡3동주민센터,CVNTL_25_41190_00486,,경기도 부천시 부광로8번길 53,경기도 부천시 괴안동 108-1,,,,,,,,,,,한국전기차충전서비스,,2022-07-11,,37.4825860000,126.8102200000
경기도,성남시 분당구,판교동,"41135108",생활편의형SOC,CVNTL,전기충전소,경기성남 판교동행정복지센터,CVNTL_25_41135_00556,,경기도 성남시 분당구 서판교로32번길 9,경기도 성남시 분당구 판교동 575,,,,,,,,,,,에버온,,2022-07-11,,37.3898500000,127.0986600000
경기도,과천시,관문동,"41290101",생활편의형SOC,CVNTL,전기충전소,관문체육공원,CVNTL_25_41290_00183,,경기도 과천시 중앙로 294,경기도 과천시 관문동 3,,,,,,,,,,,환경부(한국자동차환경협회),,2022-07-11,,37.4414330000,126.9962900000
경기도,부천시,상동,"41190109",생활편의형SOC,CVNTL,전기충전소,삼익아파트,CVNTL_25_41190_00529,,경기도 부천시 장말로 102,경기도 부천시 상동 395,,,,,,,,,,,케이티,,2022-07-11,,37.4934540000,126.7529000000
